X,Y,OBJECTID,Plant_Code,Plant_Name,Utility_ID,Utility_Name,sector_name,Street_Address,City,County,State,Zip,PrimSource,source_desc,tech_desc,Install_MW,Total_MW,Bat_MW,Bio_MW,Coal_MW,Geo_MW,Hydro_MW,HydroPS_MW,NG_MW,Nuclear_MW,Crude_MW,Solar_MW,Wind_MW,Other_MW,Source,Period,Longitude,Latitude
-160.497222000225,55.3397220001981,11570,1,Sand Point,63560,"TDX Sand Point Generating, LLC",Electric Utility,100 Power Plant Way,Sand Point,Aleutians East,Alaska,99661,petroleum,"Petroleum = 1.3 MW, Wind = 0.4 MW","Petroleum Liquids; Onshore Wind Turbine;",3.7,1.7,,,,,,,,,1.3,,0.4,,"EIA-860, EIA-860M and EIA-923",202305,-160.497222,55.339722
-87.3568230001965,33.4586650002074,11571,2,Bankhead Dam,195,Alabama Power Co,Electric Utility,19001 Lock 17 Road,Northport,Tuscaloosa,Alabama,35476,hydroelectric,Hydroelectric = 53 MW,Conventional Hydroelectric,53.9,53,,,,,53,,,,,,,,"EIA-860, EIA-860M and EIA-923",202305,-87.356823,33.458665
-88.0103000003302,31.0069000003425,11572,3,Barry,195,Alabama Power Co,Electric Utility,North Highway 43,Bucks,Mobile,Alabama,36512,natural gas,"Coal = 1118.5 MW, Natural Gas = 1296.2 MW","Conventional Steam Coal; Natural Gas Fired Combined Cycle; Natural Gas Steam Turbine",2569.5,2414.7,,,1118.5,,,,1296.2,,,,,,"EIA-860, EIA-860M and EIA-923",202305,-88.0103,31.0069
-86.2830559999325,32.5838890002322,11573,4,Walter Bouldin Dam,195,Alabama Power Co,Electric Utility,750 Bouldin Dam Road,Wetumpka,Elmore,Alabama,36092,hydroelectric,Hydroelectric = 224.1 MW,Conventional Hydroelectric,225,224.1,,,,,224.1,,,,,,,,"EIA-860, EIA-860M and EIA-923",202305,-86.283056,32.583889
-106.37499999969,31.7568999999347,11574,9,Copper,5701,El Paso Electric Co,Electric Utility,651 Hawkins Blvd.,El Paso,El Paso,Texas,79915,natural gas,Natural Gas = 63 MW,Natural Gas Fired Combustion Turbine,86.9,63,,,,,,,63,,,,,,"EIA-860, EIA-860M and EIA-923",202305,-106.375,31.7569
-87.7811000002387,32.6016999998438,11575,10,Greene County,195,Alabama Power Co,Electric Utility,Highway 43,Demopolis,Greene,Alabama,36732,natural gas,Natural Gas = 1256.1 MW,"Natural Gas Fired Combustion Turbine; Natural Gas Steam Turbine;",1288.4,1256.1,,,,,,,1256.1,,,,,,"EIA-860, EIA-860M and EIA-923",202305,-87.7811,32.6017
-86.0523999996488,33.7845000000357,11576,11,H Neely Henry Dam,195,Alabama Power Co,Electric Utility,1021 Ala Highway 144,Ohatchee,Calhoun,Alabama,36271,hydroelectric,Hydroelectric = 71.1 MW,Conventional Hydroelectric,72.9,71.1,,,,,71.1,,,,,,,,"EIA-860, EIA-860M and EIA-923",202305,-86.0524,33.7845
-87.449499999763,33.2553000003656,11577,12,Holt Dam,195,Alabama Power Co,Electric Utility,12117 Power Plant Road,Tuscaloosa,Tuscaloosa,Alabama,35476,hydroelectric,Hydroelectric = 48 MW,Conventional Hydroelectric,46.9,48,,,,,48,,,,,,,,"EIA-860, EIA-860M and EIA-923",202305,-87.4495,33.2553
-86.2548000002187,32.6188999998993,11578,13,Jordan Dam,195,Alabama Power Co,Electric Utility,6150Jordan Dam Lane,Wetumpka,Elmore,Alabama,36092,hydroelectric,Hydroelectric = 129.2 MW,Conventional Hydroelectric,100,129.2,,,,,129.2,,,,,,,,"EIA-860, EIA-860M and EIA-923",202305,-86.2548,32.6189
-86.3375470001768,33.4258779997746,11579,14,Logan Martin Dam,195,Alabama Power Co,Electric Utility,299 Logan Martin Road,Vincent,Talladega,Alabama,35178,hydroelectric,Hydroelectric = 129 MW,Conventional Hydroelectric,128.1,129,,,,,129,,,,,,,,"EIA-860, EIA-860M and EIA-923",202305,-86.337547,33.425878
-86.5187000000359,32.9633000003081,11580,15,Lay Dam,195,Alabama Power Co,Electric Utility,626 County Road 794,Clanton,Chilton,Alabama,35045,hydroelectric,Hydroelectric = 180 MW,Conventional Hydroelectric,177,180,,,,,180,,,,,,,,"EIA-860, EIA-860M and EIA-923",202305,-86.5187,32.9633
-85.9114420003965,32.6803940002627,11581,16,Martin Dam,195,Alabama Power Co,Electric Utility,675 Overlook Drive,Dadeville,Elmore,Alabama,36078,hydroelectric,Hydroelectric = 182.1 MW,Conventional Hydroelectric,210.6,182.1,,,,,182.1,,,,,,,,"EIA-860, EIA-860M and EIA-923",202305,-85.911442,32.680394
-86.4448919998246,32.8060249998295,11582,17,Mitchell Dam,195,Alabama Power Co,Electric Utility,2235 County Road 93,Verbena,Coosa,Alabama,36091,hydroelectric,Hydroelectric = 163.1 MW,Conventional Hydroelectric,170,163.1,,,,,163.1,,,,,,,,"EIA-860, EIA-860M and EIA-923",202305,-86.444892,32.806025
-87.1077000002404,33.9406000000147,11583,18,Lewis Smith Dam,195,Alabama Power Co,Electric Utility,640 Powerhouse Road,Jasper,Walker,Alabama,35501,hydroelectric,Hydroelectric = 178 MW,Conventional Hydroelectric,181,178,,,,,178,,,,,,,,"EIA-860, EIA-860M and EIA-923",202305,-87.1077,33.9406
-85.8876139997374,32.5354359999009,11584,19,Thurlow Dam,195,Alabama Power Co,Electric Utility,249 Outer Drive,Tallassee,Elmore,Alabama,36078,hydroelectric,Hydroelectric = 79.9 MW,Conventional Hydroelectric,91,79.9,,,,,79.9,,,,,,,,"EIA-860, EIA-860M and EIA-923",202305,-85.887614,32.535436
-85.7538059999536,34.1721420001082,11585,20,Weiss Dam,195,Alabama Power Co,Electric Utility,2500 County Road 20,Leesburg,Cherokee,Alabama,35983,hydroelectric,Hydroelectric = 81 MW,Conventional Hydroelectric,87.6,81,,,,,81,,,,,,,,"EIA-860, EIA-860M and EIA-923",202305,-85.753806,34.172142
-85.8901000001496,32.5742999999772,11586,21,Yates Dam,195,Alabama Power Co,Electric Utility,County Road 44,Tallassee,Elmore,Alabama,36078,hydroelectric,Hydroelectric = 44 MW,Conventional Hydroelectric,50.5,44,,,,,44,,,,,,,,"EIA-860, EIA-860M and EIA-923",202305,-85.8901,32.5743
-86.458056000033,33.2442110001139,11587,26,E C Gaston,195,Alabama Power Co,Electric Utility,31972 Highway 25 North,Wilsonville,Shelby,Alabama,35186,natural gas,"Coal = 832 MW, Natural Gas = 1020 MW, Petroleum = 16 MW","Conventional Steam Coal; Natural Gas Steam Turbine; Petroleum Liquids",2034,1868,,,832,,,,1020,,16,,,,"EIA-860, EIA-860M and EIA-923",202305,-86.458056,33.244211
-94.4177999998101,44.0500999998396,11588,30,Madelia,29305,City of Madelia - (MN),Electric Utility,24 Abbot Ave. S.W.,City of Madelia,Watonwan,Minnesota,56062,petroleum,Petroleum = 10.6 MW,Petroleum Liquids,11.8,10.6,,,,,,,,,10.6,,,,"EIA-860, EIA-860M and EIA-923",202305,-94.4178,44.0501
-120.953341000313,39.1342590001436,11589,34,Rollins,13402,Nevada Irrigation District,IPP Non-CHP,15531 Arrow Head Lane,Colfax,Placer,California,95713,hydroelectric,Hydroelectric = 12.1 MW,Conventional Hydroelectric,12.1,12.1,,,,,12.1,,,,,,,,"EIA-860, EIA-860M and EIA-923",202305,-120.953341,39.134259
-87.3997670000831,32.1008809997589,11590,38,Millers Ferry,27813,USCE-Mobile District,Electric Utility,1606 Powerhouse Road,Camden,Wilcox,Alabama,36726,hydroelectric,Hydroelectric = 90 MW,Conventional Hydroelectric,101.1,90,,,,,90,,,,,,,,"EIA-860, EIA-860M and EIA-923",202305,-87.399767,32.100881
-87.1189000002684,34.7042000002238,11591,46,Browns Ferry,18642,Tennessee Valley Authority,Electric Utility,Shaw Rd. PO Box 2000,Decatur,Limestone,Alabama,35609,nuclear,Nuclear = 3661.7 MW,Nuclear,3854,3661.7,,,,,,,,3661.7,,,,,"EIA-860, EIA-860M and EIA-923",202305,-87.1189,34.7042
-87.8485999999823,34.7438999997952,11592,47,Colbert,18642,Tennessee Valley Authority,Electric Utility,900 Steam Plant Rd.,Tuscumbia,Colbert,Alabama,35674,natural gas,Natural Gas = 363.2 MW,Natural Gas Fired Combustion Turbine,476,363.2,,,,,,,363.2,,,,,,"EIA-860, EIA-860M and EIA-923",202305,-87.8486,34.7439
-86.3939309995579,34.4212720002695,11593,48,Guntersville,18642,Tennessee Valley Authority,Electric Utility,3464 Snow Point Rd.,Guntersville,Marshall,Alabama,35976,hydroelectric,Hydroelectric = 122.7 MW,Conventional Hydroelectric,115.2,122.7,,,,,122.7,,,,,,,,"EIA-860, EIA-860M and EIA-923",202305,-86.393931,34.421272
-87.3818999995621,34.8069000000393,11594,49,Wheeler Dam,18642,Tennessee Valley Authority,Electric Utility,24455 Alabama Hwy 101,Town Creek,Lawrence,Alabama,35672,hydroelectric,Hydroelectric = 398.2 MW,Conventional Hydroelectric,404,398.2,,,,,398.2,,,,,,,,"EIA-860, EIA-860M and EIA-923",202305,-87.3819,34.8069
-86.479469000425,31.4033000003683,11595,53,Gantt,189,PowerSouth Energy Cooperative,Electric Utility,28605 Powerhouse Road,Andalusia,Covington,Alabama,36421,hydroelectric,Hydroelectric = 2.8 MW,Conventional Hydroelectric,3,2.8,,,,,2.8,,,,,,,,"EIA-860, EIA-860M and EIA-923",202305,-86.479469,31.4033
-84.1016999995629,37.8832999997057,11596,54,J K Smith,5580,"East Kentucky Power Coop, Inc",Electric Utility,12145 Irvine Road,Winchester,Clark,Kentucky,40391,natural gas,Natural Gas = 753 MW,Natural Gas Fired Combustion Turbine,1055,753,,,,,,,753,,,,,,"EIA-860, EIA-860M and EIA-923",202305,-84.1017,37.8833
-86.5183069996756,31.3611459997723,11597,55,Point A,189,PowerSouth Energy Cooperative,Electric Utility,25482 Firetower Lane,Andalusia,Covington,Alabama,36421,hydroelectric,Hydroelectric = 5.4 MW,Conventional Hydroelectric,5.2,5.4,,,,,5.4,,,,,,,,"EIA-860, EIA-860M and EIA-923",202305,-86.518307,31.361146
-98.348222000325,40.8547650002101,11598,59,Platte,40606,City of Grand Island - (NE),Electric Utility,1035 W Wildwood Drive,Grand Island,Hall,Nebraska,68801,coal,Coal = 100 MW,Conventional Steam Coal,109.8,100,,,100,,,,,,,,,,"EIA-860, EIA-860M and EIA-923",202305,-98.348222,40.854765
-98.3124370001277,40.5808720001464,11599,60,Whelan Energy Center,8245,City of Hastings - (NE),Electric Utility,4520 East South St.,Hastings,Adams,Nebraska,68902,coal,Coal = 296 MW,Conventional Steam Coal,324.3,296,,,296,,,,,,,,,,"EIA-860, EIA-860M and EIA-923",202305,-98.312437,40.580872
-134.10100000028,58.3175999998452,11600,62,Annex Creek,213,Alaska Electric Light & Power Co.,Electric Utility,Annex Creek,Juneau,Juneau,Alaska,99801,hydroelectric,Hydroelectric = 3.6 MW,Conventional Hydroelectric,4,3.6,,,,,3.6,,,,,,,,"EIA-860, EIA-860M and EIA-923",202305,-134.101,58.3176
-134.417400000397,58.3107000000775,11601,63,Gold Creek,213,Alaska Electric Light & Power Co.,Electric Utility,700 Capital Ave.,Juneau,Juneau,Alaska,99801,petroleum,"Hydroelectric = 1.6 MW, Petroleum = 8.1 MW","Conventional Hydroelectric; Petroleum Liquids;",9.7,9.7,,,,,1.6,,,,8.1,,,,"EIA-860, EIA-860M and EIA-923",202305,-134.4174,58.3107
-134.495300000103,58.3535999999773,11602,64,Lemon Creek,213,Alaska Electric Light & Power Co.,Electric Utility,5601 Tonsgard Ct.,Juneau,Juneau,Alaska,99801,petroleum,Petroleum = 57.5 MW,Petroleum Liquids,61.7,57.5,,,,,,,,,57.5,,,,"EIA-860, EIA-860M and EIA-923",202305,-134.4953,58.3536
-134.463100000135,58.3269000002195,11603,65,Salmon Creek 1,213,Alaska Electric Light & Power Co.,Electric Utility,2750 Channel Vista Dr.,Juneau,Juneau,Alaska,99801,hydroelectric,Hydroelectric = 5.2 MW,Conventional Hydroelectric,8.5,5.2,,,,,5.2,,,,,,,,"EIA-860, EIA-860M and EIA-923",202305,-134.4631,58.3269
-135.313100000366,59.4545000000967,11604,66,Skagway,219,Alaska Power and Telephone Co,Electric Utility,110 Spring St,Skagway,Skagway Hoonah Angoon,Alaska,99840,petroleum,"Hydroelectric = 1 MW, Petroleum = 4.1 MW","Conventional Hydroelectric; Petroleum Liquids;",4.7,5.1,,,,,1,,,,4.1,,,,"EIA-860, EIA-860M and EIA-923",202305,-135.3131,59.4545
-135.446227999734,59.2359309999978,11605,69,Haines,219,Alaska Power and Telephone Co,Electric Utility,241 Dalton St.,Haines,Haines,Alaska,99927,petroleum,Petroleum = 9.6 MW,Petroleum Liquids,9.6,9.6,,,,,,,,,9.6,,,,"EIA-860, EIA-860M and EIA-923",202305,-135.446228,59.235931
-131.356110999958,55.6152080001895,11606,70,Swan Lake,60123,Southeast Alaska Power Agency,Commercial Non-CHP,Carroll Inlet,Ketchikan,Ketchikan Gateway,Alaska,99901,hydroelectric,Hydroelectric = 22.6 MW,Conventional Hydroelectric,22.6,22.6,,,,,22.6,,,,,,,,"EIA-860, EIA-860M and EIA-923",202305,-131.356111,55.615208
-152.894999999663,57.6860999999738,11607,71,Terror Lake Microgrid,10433,Kodiak Electric Assn Inc,Electric Utility,20 miles southwest of Kodiak,Kodiak,Kodiak Island,Alaska,99615,hydroelectric,Hydroelectric = 33.6 MW,Conventional Hydroelectric,33.6,33.6,,,,,33.6,,,,,,,,"EIA-860, EIA-860M and EIA-923",202305,-152.895,57.6861
-118.416800000279,34.011350000254,11608,72,Venice Hydro,12397,Metropolitan Water District of S CA,Electric Utility,3815 Sepulveda Blvd,Culver City,Los Angeles,California,90230,hydroelectric,Hydroelectric = 10.1 MW,Conventional Hydroelectric,10.1,10.1,,,,,10.1,,,,,,,,"EIA-860, EIA-860M and EIA-923",202305,-118.4168,34.01135
-149.866100000235,61.2220999999081,11609,75,Hank Nikkels Plant 1,3522,Chugach Electric Assn Inc,Electric Utility,821 E. 1st Ave,Anchorage,Anchorage,Alaska,99501,natural gas,"Natural Gas = 60.4 MW, Petroleum = 2 MW","Natural Gas Fired Combustion Turbine; Petroleum Liquids;",77.9,62.4,,,,,,,60.4,,2,,,,"EIA-860, EIA-860M and EIA-923",202305,-149.8661,61.2221
-149.150090000261,61.4752110000477,11610,77,Eklutna Hydro Project,3522,Chugach Electric Assn Inc,Electric Utility,Mile 4 Old Glenn Hwy.,Palmer,Matanuska Susitna,Alaska,99645,hydroelectric,Hydroelectric = 44.4 MW,Conventional Hydroelectric,44.4,44.4,,,,,44.4,,,,,,,,"EIA-860, EIA-860M and EIA-923",202305,-149.15009,61.475211
-133.73699999982,58.1414999999444,11611,78,Snettisham,213,Alaska Electric Light & Power Co.,Electric Utility,Port Snettisham,Juneau,Juneau,Alaska,99801,hydroelectric,Hydroelectric = 78 MW,Conventional Hydroelectric,78.2,78,,,,,78,,,,,,,,"EIA-860, EIA-860M and EIA-923",202305,-133.737,58.1415
-147.73506300025,64.8477429999542,11612,79,Aurora Energy LLC Chena,986,Aurora Energy LLC,IPP CHP,1206 First Ave.,Fairbanks,Fairbanks North Star,Alaska,99701,coal,Coal = 25.7 MW,Conventional Steam Coal,27.5,25.7,,,25.7,,,,,,,,,,"EIA-860, EIA-860M and EIA-923",202305,-147.735063,64.847743
-131.633425000228,55.3446410000326,11613,84,Ketchikan,10210,Ketchikan Public Utilities,Electric Utility,1037 Fair St.,Ketchikan,Ketchikan Gateway,Alaska,99901,hydroelectric,Hydroelectric = 4.2 MW,Conventional Hydroelectric,4.2,4.2,,,,,4.2,,,,,,,,"EIA-860, EIA-860M and EIA-923",202305,-131.633425,55.344641
-131.696959999801,55.3573969999158,11614,85,S W Bailey,10210,Ketchikan Public Utilities,Electric Utility,3935 Tongass Ave.,Ketchikan,Ketchikan Gateway,Alaska,99901,petroleum,Petroleum = 23 MW,Petroleum Liquids,25.9,23,,,,,,,,,23,,,,"EIA-860, EIA-860M and EIA-923",202305,-131.69696,55.357397
-74.2063000004231,41.949000000239,11615,88,Ashokan,15296,New York Power Authority,Electric Utility,Route 28A,Kingston,Ulster,New York,12401,hydroelectric,Hydroelectric = 4.6 MW,Conventional Hydroelectric,4.6,4.6,,,,,4.6,,,,,,,,"EIA-860, EIA-860M and EIA-923",202305,-74.2063,41.949
-165.429813999946,64.5053310000486,11616,90,Snake River,13642,Nome Joint Utility Systems,Electric Utility,1226 Port Road,Nome,Nome,Alaska,99762,petroleum,"Petroleum = 16.4 MW, Wind = 1.8 MW","Petroleum Liquids; Onshore Wind Turbine;",18.4,18.2,,,,,,,,,16.4,,1.8,,"EIA-860, EIA-860M and EIA-923",202305,-165.429814,64.505331
-132.957091000225,56.8110399999141,11617,91,Petersburg,14856,Petersburg Borough - (AK),Electric Utility,11 S. Nordic Drive,Petersburg,Wrangell Petersburg,Alaska,99833,petroleum,"Hydroelectric = 1.6 MW, Petroleum = 10.8 MW","Conventional Hydroelectric; Petroleum Liquids;",14.5,12.4,,,,,1.6,,,,10.8,,,,"EIA-860, EIA-860M and EIA-923",202305,-132.957091,56.81104
-149.43501000011,60.1309219998786,11618,92,Seward (AK),16955,City of Seward - (AK),Electric Utility,605 SeaLion Avenue,Seward,Kenai Peninsula,Alaska,99664,petroleum,Petroleum = 15.6 MW,Petroleum Liquids,15.6,15.6,,,,,,,,,15.6,,,,"EIA-860, EIA-860M and EIA-923",202305,-149.43501,60.130922
-135.229699999756,57.0515999999951,11619,93,Blue Lake Hydro,17271,City & Borough of Sitka - (AK),Electric Utility,SMC,Sitka,Sitka,Alaska,99835,hydroelectric,Hydroelectric = 15.9 MW,Conventional Hydroelectric,15.9,15.9,,,,,15.9,,,,,,,,"EIA-860, EIA-860M and EIA-923",202305,-135.2297,57.0516
-132.379439000187,56.4609760000746,11620,95,Wrangell,21015,City of Wrangell - (AK),Electric Utility,1043 Case Ave,Wrangell,Wrangell Petersburg,Alaska,99929,petroleum,Petroleum = 8.5 MW,Petroleum Liquids,8.5,8.5,,,,,,,,,8.5,,,,"EIA-860, EIA-860M and EIA-923",202305,-132.379439,56.460976
-151.03560000039,61.1860999999215,11621,96,Beluga,3522,Chugach Electric Assn Inc,Electric Utility,Beluga Power Plant,Beluga,Kenai Peninsula,Alaska,99682,natural gas,Natural Gas = 300.4 MW,Natural Gas Fired Combustion Turbine,312.4,300.4,,,,,,,300.4,,,,,,"EIA-860, EIA-860M and EIA-923",202305,-151.0356,61.1861
-122.36499999983,47.0797219997048,11622,99,Frederickson,15500,Puget Sound Energy Inc,Electric Utility,4714 192nd St East,Tacoma,Pierce,Washington,98446,natural gas,Natural Gas = 134 MW,Natural Gas Fired Combustion Turbine,177.8,134,,,,,,,134,,,,,,"EIA-860, EIA-860M and EIA-923",202305,-122.365,47.079722
-111.781063999907,33.4664769999517,11623,100,South Consolidated,16572,Salt River Project,Electric Utility,Unnamed Road,Phoenix,Maricopa,Arizona,85072,hydroelectric,Hydroelectric = 1.4 MW,Conventional Hydroelectric,1.4,1.4,,,,,1.4,,,,,,,,"EIA-860, EIA-860M and EIA-923",202305,-111.781064,33.466477
-119.256700000124,37.1479259997435,11624,104,J S Eastwood,17609,Southern California Edison Co,Electric Utility,Hwy 168 Sierra National Forest,Shaver Lake,Fresno,California,93664,pumped storage,Pumped Storage = 199.8 MW,Hydroelectric Pumped Storage,199.8,199.8,,,,,,199.8,,,,,,,"EIA-860, EIA-860M and EIA-923",202305,-119.2567,37.147926
-100.972499999786,37.9308000002552,11625,108,Holcomb,18315,Sunflower Electric Power Corp,Electric Utility,2440 Holcomb Lane,Holcomb,Finney,Kansas,67851,coal,Coal = 359.1 MW,Conventional Steam Coal,348.7,359.1,,,359.1,,,,,,,,,,"EIA-860, EIA-860M and EIA-923",202305,-100.9725,37.9308
-158.468597000319,59.042914000019,11626,109,Dillingham,13870,"Nushagak Electric Coop, Inc",Electric Utility,557 Kenny Wren Rd.,Dillingham,Dillingham,Alaska,99576,petroleum,Petroleum = 11 MW,Petroleum Liquids,11,11,,,,,,,,,11,,,,"EIA-860, EIA-860M and EIA-923",202305,-158.468597,59.042914
-110.303299999841,34.9394000002309,11627,113,Cholla,803,Arizona Public Service Co,Electric Utility,4801 Cholla Lake Road,Joseph City,Navajo,Arizona,86032,coal,Coal = 387 MW,Conventional Steam Coal,425.9,387,,,387,,,,,,,,,,"EIA-860, EIA-860M and EIA-923",202305,-110.3033,34.9394
-109.553800000286,31.3641220001439,11628,114,Douglas,803,Arizona Public Service Co,Electric Utility,Sulpher Spring Rd/Lawrence Ave,Douglas,Cochise,Arizona,85607,petroleum,Petroleum = 15 MW,Petroleum Liquids,26.1,15,,,,,,,,,15,,,,"EIA-860, EIA-860M and EIA-923",202305,-109.5538,31.364122
-111.912200000404,33.4224999999986,11629,116,Ocotillo,803,Arizona Public Service Co,Electric Utility,1500 East University,Tempe,Maricopa,Arizona,85281,natural gas,Natural Gas = 623.5 MW,Natural Gas Fired Combustion Turbine,806.2,623.5,,,,,,,623.5,,,,,,"EIA-860, EIA-860M and EIA-923",202305,-111.9122,33.4225
-112.158299999648,33.4417000000019,11630,117,West Phoenix,803,Arizona Public Service Co,Electric Utility,4606 West Hadley,Phoenix,Maricopa,Arizona,85043,natural gas,Natural Gas = 920 MW,"Natural Gas Fired Combined Cycle; Natural Gas Fired Combustion Turbine;",1207.4,920,,,,,,,920,,,,,,"EIA-860, EIA-860M and EIA-923",202305,-112.1583,33.4417
-111.300000000078,32.5516999997651,11631,118,Saguaro,803,Arizona Public Service Co,Electric Utility,Mail Post 228,Red Rock,Pinal,Arizona,85245,natural gas,Natural Gas = 176 MW,Natural Gas Fired Combustion Turbine,184.5,176,,,,,,,176,,,,,,"EIA-860, EIA-860M and EIA-923",202305,-111.3,32.5517
-114.710600000082,32.7214000003276,11632,120,Yucca,803,Arizona Public Service Co,Electric Utility,7522 South Somerton Ave.,Yuma,Yuma,Arizona,85364,natural gas,"Natural Gas = 257 MW, Petroleum = 71 MW","Natural Gas Fired Combustion Turbine; Natural Gas Steam Turbine; Petroleum Liquids",425,328,,,,,,,257,,71,,,,"EIA-860, EIA-860M and EIA-923",202305,-114.7106,32.7214
-110.992147999895,32.2522729999235,11633,124,Demoss Petrie,24211,Tucson Electric Power Co,Electric Utility,2501 N Flowing Wells Road,Tucson,Pima,Arizona,85705,natural gas,Natural Gas = 75 MW,Natural Gas Fired Combustion Turbine,85,75,,,,,,,75,,,,,,"EIA-860, EIA-860M and EIA-923",202305,-110.992148,32.252273
-110.904700000173,32.1599999996323,11634,126,H Wilson Sundt Generating Station,24211,Tucson Electric Power Co,Electric Utility,3950 E Irvington Road,Tucson,Pima,Arizona,85714,natural gas,Natural Gas = 490 MW,"Natural Gas Fired Combustion Turbine; Natural Gas Internal Combustion Engine; Natural Gas Steam Turbine",528.9,490,,,,,,,490,,,,,,"EIA-860, EIA-860M and EIA-923",202305,-110.9047,32.16
-80.1132349999833,33.3715060001981,11635,130,Cross,17543,South Carolina Public Service Authority,Electric Utility,553 Cross Station Road,Cross,Berkeley,South Carolina,29436,coal,Coal = 2370 MW,Conventional Steam Coal,2390.1,2370,,,2370,,,,,,,,,,"EIA-860, EIA-860M and EIA-923",202305,-80.113235,33.371506
-81.6327779999969,29.7330560003275,11636,136,Seminole (FL),21554,Seminole Electric Cooperative Inc,Electric Utility,State Highway 19,Palatka,Putnam,Florida,32708,coal,"Coal = 1260 MW, Natural Gas = 1099.4 MW","Conventional Steam Coal; Natural Gas Fired Combined Cycle;",2612.4,2359.4,,,1260,,,,1099.4,,,,,,"EIA-860, EIA-860M and EIA-923",202305,-81.632778,29.733056
-112.21529999987,33.5561000000723,11637,141,Agua Fria,16572,Salt River Project,Electric Utility,7302 W Northern Ave,Glendale,Maricopa,Arizona,85303,natural gas,"Battery = 25 MW, Natural Gas = 544 MW, Petroleum = 181 MW,Solar = 0.2 MW","Batteries; Natural Gas Fired Combustion Turbine; Natural Gas Steam Turbine; Petroleum Liquids; Solar Photovoltaic",737.5,750.2,25,,,,,,544,,181,0.2,,,"EIA-860, EIA-860M and EIA-923",202305,-112.2153,33.5561
-111.946052000383,33.4393750001215,11638,143,Crosscut,16572,Salt River Project,Electric Utility,998 W. Washington St.,Tempe,Maricopa,Arizona,85281,hydroelectric,Hydroelectric = 3 MW,Conventional Hydroelectric,3,3,,,,,3,,,,,,,,"EIA-860, EIA-860M and EIA-923",202305,-111.946052,33.439375
-111.344000000123,33.5906999999533,11639,145,Horse Mesa,16572,Salt River Project,Electric Utility,20909 E. Apache Trail,Apache Junction,Maricopa,Arizona,85119,pumped storage,"Pumped Storage = 119 MW,Hydroelectric = 30 MW","Hydroelectric Pumped Storage; Conventional Hydroelectric;",129.5,149,,,,,30,119,,,,,,,"EIA-860, EIA-860M and EIA-923",202305,-111.344,33.5907
-111.935300000069,33.3555999998213,11640,147,Kyrene,16572,Salt River Project,Electric Utility,7005 S Kyrene Rd.,Tempe,Maricopa,Arizona,85283,natural gas,Natural Gas = 525 MW,"Natural Gas Fired Combined Cycle; Natural Gas Fired Combustion Turbine; Natural Gas Steam Turbine",573.7,525,,,,,,,525,,,,,,"EIA-860, EIA-860M and EIA-923",202305,-111.9353,33.3556
-111.443099999786,33.553599999794,11641,148,Mormon Flat,16572,Salt River Project,Electric Utility,29600 E. Apache Trail,Apache Junction,Maricopa,Arizona,85119,pumped storage,"Pumped Storage = 57.3 MW,Hydroelectric = 11.5 MW","Hydroelectric Pumped Storage; Conventional Hydroelectric;",63.5,68.8,,,,,11.5,57.3,,,,,,,"EIA-860, EIA-860M and EIA-923",202305,-111.4431,33.5536
-111.161786000082,33.6711040000585,11642,149,Roosevelt,16572,Salt River Project,Electric Utility,"29221 N AZ Highway 188, #4",Roosevelt,Maricopa,Arizona,85545,hydroelectric,Hydroelectric = 34.8 MW,Conventional Hydroelectric,36,34.8,,,,,34.8,,,,,,,,"EIA-860, EIA-860M and EIA-923",202305,-111.161786,33.671104
-111.535999999833,33.5660999999595,11643,150,Stewart Mountain,16572,Salt River Project,Electric Utility,P.O. Box 52025 PAB 221,Phoenix,Maricopa,Arizona,85072,hydroelectric,Hydroelectric = 13 MW,Conventional Hydroelectric,13,13,,,,,13,,,,,,,,"EIA-860, EIA-860M and EIA-923",202305,-111.536,33.5661
-120.931389999795,37.6293600002966,11644,151,McClure,12745,Modesto Irrigation District,Electric Utility,639 S. McClure Rd.,Modesto,Stanislaus,California,95354,natural gas,"Natural Gas = 53.5 MW, Petroleum = 53.5 MW","Natural Gas Fired Combustion Turbine; Petroleum Liquids;",142.4,107,,,,,,,53.5,,53.5,,,,"EIA-860, EIA-860M and EIA-923",202305,-120.93139,37.62936
-114.570668999778,35.1970440000368,11645,152,Davis Dam,2518,U S Bureau of Reclamation,Electric Utility,N/A,Kingman,Mohave,Arizona,86430,hydroelectric,Hydroelectric = 254.8 MW,Conventional Hydroelectric,254.8,254.8,,,,,254.8,,,,,,,,"EIA-860, EIA-860M and EIA-923",202305,-114.570669,35.197044
-111.483871999978,36.9366140001512,11646,153,Glen Canyon Dam,2518,U S Bureau of Reclamation,Electric Utility,N/A,Page,Coconino,Arizona,86040,hydroelectric,Hydroelectric = 1312 MW,Conventional Hydroelectric,1312,1312,,,,,1312,,,,,,,,"EIA-860, EIA-860M and EIA-923",202305,-111.483872,36.936614
-114.738006000399,36.0155099996609,11647,154,Hoover Dam (NV),2518,U S Bureau of Reclamation,Electric Utility,N/A,Boulder City,Clark,Nevada,89006,hydroelectric,Hydroelectric = 1039.4 MW,Conventional Hydroelectric,1039.4,1039.4,,,,,1039.4,,,,,,,,"EIA-860, EIA-860M and EIA-923",202305,-114.738006,36.01551
-111.312505999612,40.4936310002458,11648,159,Lake Creek Dam,8366,Heber Light & Power Company,Electric Utility,2400 East Center,Heber City,Wasatch,Utah,84032,hydroelectric,Hydroelectric = 1 MW,Conventional Hydroelectric,1.5,1,,,,,1,,,,,,,,"EIA-860, EIA-860M and EIA-923",202305,-111.312506,40.493631
-109.893100000051,32.0603000002852,11649,160,Apache Station,796,Arizona Electric Pwr Coop Inc,Electric Utility,3525 N US Hwy 191,Cochise,Cochise,Arizona,85606,natural gas,"Coal = 175 MW, Natural Gas = 373.5 MW","Conventional Steam Coal; Natural Gas Fired Combustion Turbine; Natural Gas Steam Turbine",660.7,548.5,,,175,,,,373.5,,,,,,"EIA-860, EIA-860M and EIA-923",202305,-109.8931,32.0603
-120.594677999652,37.6114609999472,11650,161,Turlock Lake,19281,Turlock Irrigation District,Electric Utility,21642 Davis Road,Hickman,Stanislaus,California,95323,hydroelectric,Hydroelectric = 3.3 MW,Conventional Hydroelectric,3.3,3.3,,,,,3.3,,,,,,,,"EIA-860, EIA-860M and EIA-923",202305,-120.594678,37.611461
-120.746246999651,37.621535999986,11651,162,Hickman,19281,Turlock Irrigation District,Electric Utility,779 Main Canal,Hickman,Stanislaus,California,95323,hydroelectric,Hydroelectric = 1 MW,Conventional Hydroelectric,1,1,,,,,1,,,,,,,,"EIA-860, EIA-860M and EIA-923",202305,-120.746247,37.621536
-95.2894000000309,36.1902779999609,11652,165,GREC,7490,Grand River Dam Authority,Electric Utility,8142 Hwy 412B,Chouteau,Mayes,Oklahoma,74337,natural gas,"Coal = 492.5 MW, Natural Gas = 477 MW","Conventional Steam Coal; Natural Gas Fired Combined Cycle;",1194.3,969.5,,,492.5,,,,477,,,,,,"EIA-860, EIA-860M and EIA-923",202305,-95.2894,36.190278
-93.0261999997015,34.4425000002155,11653,166,Carpenter,814,Entergy Arkansas LLC,Electric Utility,1398 Carpenter Dam Road,Hot Springs,Garland,Arkansas,71901,hydroelectric,Hydroelectric = 60.9 MW,Conventional Hydroelectric,56,60.9,,,,,60.9,,,,,,,,"EIA-860, EIA-860M and EIA-923",202305,-93.0262,34.4425
-92.9049,34.4341000002612,11654,170,Lake Catherine,814,Entergy Arkansas LLC,Electric Utility,"Hwy. 270, PO Box 218",Jones Mill,Hot Spring,Arkansas,72105,natural gas,Natural Gas = 522 MW,Natural Gas Steam Turbine,552.5,522,,,,,,,522,,,,,,"EIA-860, EIA-860M and EIA-923",202305,-92.9049,34.4341
-89.968899999722,35.705380999784,11655,172,Osceola (AR),14216,City of Osceola - (AR),Electric Utility,100 West Semmes Ave.,Osceola,Mississippi,Arkansas,72370,petroleum,Petroleum = 1.6 MW,Petroleum Liquids,1.6,1.6,,,,,,,,,1.6,,,,"EIA-860, EIA-860M and EIA-923",202305,-89.9689,35.705381
-92.8941000000051,34.4272000003215,11656,174,Remmel,814,Entergy Arkansas LLC,Electric Utility,1282 Remmel Dam Road,Malvern,Hot Spring,Arkansas,72104,hydroelectric,Hydroelectric = 11.6 MW,Conventional Hydroelectric,9,11.6,,,,,11.6,,,,,,,,"EIA-860, EIA-860M and EIA-923",202305,-92.8941,34.4272
-121.862150000238,40.4519300002247,11657,180,Volta 2,14328,Pacific Gas & Electric Co.,Electric Utility,Manton-Viola Road,Manton,Shasta,California,96059,hydroelectric,Hydroelectric = 0.9 MW,Conventional Hydroelectric,1,0.9,,,,,0.9,,,,,,,,"EIA-860, EIA-860M and EIA-923",202305,-121.86215,40.45193
-93.8473729995831,36.421507000152,11658,182,Beaver Dam,19647,USCE-Little Rock District,Electric Utility,774 Dam Site River Raod,Eureka Springs,Carroll,Arkansas,72631,hydroelectric,Hydroelectric = 128.8 MW,Conventional Hydroelectric,112,128.8,,,,,128.8,,,,,,,,"EIA-860, EIA-860M and EIA-923",202305,-93.847373,36.421507
-93.1109629997185,34.2119129999516,11659,187,Degray,19406,USCE -Vickburg District,Electric Utility,848 Channel Rd,Arkadelphia,Clark,Arkansas,71923,hydroelectric,"Pumped Storage = 30 MW,Hydroelectric = 40 MW","Hydroelectric Pumped Storage; Conventional Hydroelectric;",70,70,,,,,40,30,,,,,,,"EIA-860, EIA-860M and EIA-923",202305,-93.110963,34.211913
-91.9953000002296,35.5207000002799,11660,188,Greers Ferry Lake,19647,USCE-Little Rock District,Electric Utility,700 Heber Springs Road North,Heber Springs,Cleburne,Arkansas,72543,hydroelectric,Hydroelectric = 90 MW,Conventional Hydroelectric,96,90,,,,,90,,,,,,,,"EIA-860, EIA-860M and EIA-923",202305,-91.9953,35.5207
-90.1866999997689,36.3858000000211,11661,193,Municipal Light,15043,City of Piggott - (AR),Electric Utility,Castleberry Street,Piggott,Clay,Arkansas,72454,petroleum,Petroleum = 7.2 MW,Petroleum Liquids,7.2,7.2,,,,,,,,,7.2,,,,"EIA-860, EIA-860M and EIA-923",202305,-90.1867,36.3858
-93.7151680003047,34.1484269996412,11662,195,Narrows (AR),19406,USCE -Vickburg District,Electric Utility,2859 HWY 19 North,Murfreesboro,Pike,Arkansas,71958,hydroelectric,Hydroelectric = 29.1 MW,Conventional Hydroelectric,25.5,29.1,,,,,29.1,,,,,,,,"EIA-860, EIA-860M and EIA-923",202305,-93.715168,34.148427
-92.2400999998146,36.249100000136,11663,196,Norfork,19647,USCE-Little Rock District,Electric Utility,1487 Highway 177,Salesville,Baxter,Arkansas,72653,hydroelectric,Hydroelectric = 80 MW,Conventional Hydroelectric,80.4,80,,,,,80,,,,,,,,"EIA-860, EIA-860M and EIA-923",202305,-92.2401,36.2491
-93.1944250002522,34.5709839998657,11664,197,Blakely Mountain,19406,USCE -Vickburg District,Electric Utility,1111 Blakely Dam Road,Royal,Garland,Arkansas,71968,hydroelectric,Hydroelectric = 75 MW,Conventional Hydroelectric,75,75,,,,,75,,,,,,,,"EIA-860, EIA-860M and EIA-923",202305,-93.194425,34.570984
-92.5762999997724,36.3635000003252,11665,198,Bull Shoals,19647,USCE-Little Rock District,Electric Utility,324 W 7TH,Mountain Home,Marion,Arkansas,72653,hydroelectric,Hydroelectric = 370 MW,Conventional Hydroelectric,340,370,,,,,370,,,,,,,,"EIA-860, EIA-860M and EIA-923",202305,-92.5763,36.3635
-93.1685999998007,35.2503000002736,11666,199,Dardanelle,19647,USCE-Little Rock District,Electric Utility,1022 Dam Road,Dardanelle,Pope,Arkansas,72834,hydroelectric,Hydroelectric = 140 MW,Conventional Hydroelectric,160.8,140,,,,,140,,,,,,,,"EIA-860, EIA-860M and EIA-923",202305,-93.1686,35.2503
-93.804925999814,35.4623819996834,11667,201,Thomas Fitzhugh,807,Arkansas Electric Coop Corp,Electric Utility,6006 Lock and Dam Road,Ozark,Franklin,Arkansas,72949,natural gas,Natural Gas = 162 MW,Natural Gas Fired Combined Cycle,185,162,,,,,,,162,,,,,,"EIA-860, EIA-860M and EIA-923",202305,-93.804926,35.462382
-91.3634259995604,35.2601020000836,11668,202,Carl Bailey,807,Arkansas Electric Coop Corp,Electric Utility,535 Woodruff 816,Augusta,Woodruff,Arkansas,72006,natural gas,Natural Gas = 122 MW,Natural Gas Steam Turbine,120,122,,,,,,,122,,,,,,"EIA-860, EIA-860M and EIA-923",202305,-91.363426,35.260102
-92.7916999996209,33.5647999997702,11669,203,McClellan (AR),807,Arkansas Electric Coop Corp,Electric Utility,1625 Bradley Ferry Road,Camden,Ouachita,Arkansas,71701,natural gas,Natural Gas = 134 MW,Natural Gas Steam Turbine,136,134,,,,,,,134,,,,,,"EIA-860, EIA-860M and EIA-923",202305,-92.7917,33.5648
-88.8339000001744,40.1718999998384,11670,204,Clinton Power Station,55951,Constellation Nuclear,IPP Non-CHP,Rt. 54 West,Clinton,DeWitt,Illinois,61727,nuclear,Nuclear = 1065 MW,Nuclear,1138.3,1065,,,,,,,,1065,,,,,"EIA-860, EIA-860M and EIA-923",202305,-88.8339,40.1719
-95.689779999817,38.2392600003056,11671,210,Wolf Creek Generating Station,20893,Wolf Creek Nuclear Optg Corp,Electric Utility,1550 Oxen Lane N.E.,Burlington,Coffey,Kansas,66839,nuclear,Nuclear = 1225 MW,Nuclear,1267.7,1225,,,,,,,,1225,,,,,"EIA-860, EIA-860M and EIA-923",202305,-95.68978,38.23926
-120.803549999822,39.2159790001134,11672,214,Alta Powerhouse,14328,Pacific Gas & Electric Co.,Electric Utility,904 Alta PH Rd,Alta,Placer,California,95701,hydroelectric,Hydroelectric = 1 MW,Conventional Hydroelectric,1,1,,,,,1,,,,,,,,"EIA-860, EIA-860M and EIA-923",202305,-120.80355,39.215979
-120.539444000141,38.0719439996716,11673,215,Angels,19586,Utica Water & Power Authority,IPP Non-CHP,1168 Booster Way,Angels Camp,Calaveras,California,95222,hydroelectric,Hydroelectric = 0.7 MW,Conventional Hydroelectric,1.4,0.7,,,,,0.7,,,,,,,,"EIA-860, EIA-860M and EIA-923",202305,-120.539444,38.071944
-119.087712000215,36.9091369999041,11674,217,Balch 1,14328,Pacific Gas & Electric Co.,Electric Utility,Trimmer Springs Road,Balch Camp,Fresno,California,93649,hydroelectric,Hydroelectric = 34 MW,Conventional Hydroelectric,31,34,,,,,34,,,,,,,,"EIA-860, EIA-860M and EIA-923",202305,-119.087712,36.909137
-119.087555999682,36.9089070003356,11675,218,Balch 2,14328,Pacific Gas & Electric Co.,Electric Utility,Trimmer Springs Road,Balch Camp,Fresno,California,93649,hydroelectric,Hydroelectric = 105 MW,Conventional Hydroelectric,97.2,105,,,,,105,,,,,,,,"EIA-860, EIA-860M and EIA-923",202305,-119.087556,36.908907
-121.249437999725,40.0074449999916,11676,219,Belden,14328,Pacific Gas & Electric Co.,Electric Utility,"Hwy 70, 13 mi NE/O Storrie",Belden,Plumas,California,95915,hydroelectric,Hydroelectric = 125 MW,Conventional Hydroelectric,117.9,125,,,,,125,,,,,,,,"EIA-860, EIA-860M and EIA-923",202305,-121.249438,40.007445
-121.327692000331,39.9106200000052,11677,220,Bucks Creek,14328,Pacific Gas & Electric Co.,Electric Utility,"Hwy 70, 1/4 mi W/O Storrie",Storrie,Plumas,California,95980,hydroelectric,Hydroelectric = 65 MW,Conventional Hydroelectric,66,65,,,,,65,,,,,,,,"EIA-860, EIA-860M and EIA-923",202305,-121.327692,39.91062
-121.190663000366,40.1756560002945,11678,221,Butt Valley,14328,Pacific Gas & Electric Co.,Electric Utility,Caribou-Pratville Road,Belden,Plumas,California,95956,hydroelectric,Hydroelectric = 41 MW,Conventional Hydroelectric,40,41,,,,,41,,,,,,,,"EIA-860, EIA-860M and EIA-923",202305,-121.190663,40.175656
-121.148240999813,40.0854760001373,11679,222,Caribou 1,14328,Pacific Gas & Electric Co.,Electric Utility,1000 Caribou Road,Belden,Plumas,California,95956,hydroelectric,Hydroelectric = 75 MW,Conventional Hydroelectric,73.8,75,,,,,75,,,,,,,,"EIA-860, EIA-860M and EIA-923",202305,-121.148241,40.085476
-121.14937300014,40.0859969996727,11680,223,Caribou 2,14328,Pacific Gas & Electric Co.,Electric Utility,1000 Caribou Road,Belden,Plumas,California,95956,hydroelectric,Hydroelectric = 120 MW,Conventional Hydroelectric,117.9,120,,,,,120,,,,,,,,"EIA-860, EIA-860M and EIA-923",202305,-121.149373,40.085997
-121.65738299998,39.7888770000791,11681,224,Centerville PH,14328,Pacific Gas & Electric Co.,Electric Utility,Nimshew Stage Road,Chico,Butte,California,95927,hydroelectric,Hydroelectric = 6.4 MW,Conventional Hydroelectric,6.4,6.4,,,,,6.4,,,,,,,,"EIA-860, EIA-860M and EIA-923",202305,-121.657383,39.788877
-120.813239000305,38.7717640002118,11682,225,Chili Bar,16534,Sacramento Municipal Util Dist,Electric Utility,Highway 193,Placerville,El Dorado,California,95667,hydroelectric,Hydroelectric = 7 MW,Conventional Hydroelectric,8.3,7,,,,,7,,,,,,,,"EIA-860, EIA-860M and EIA-923",202305,-120.813239,38.771764
-122.121904000134,40.4046449997247,11683,227,Coleman PH,14328,Pacific Gas & Electric Co.,Electric Utility,Coleman Fish Hatchery Road,Anderson,Shasta,California,96022,hydroelectric,Hydroelectric = 13 MW,Conventional Hydroelectric,12.1,13,,,,,13,,,,,,,,"EIA-860, EIA-860M and EIA-923",202305,-122.121904,40.404645
-122.020929999805,40.5708169998533,11684,229,Cow Creek,14328,Pacific Gas & Electric Co.,Electric Utility,South Cow Creek Road,Millville,Shasta,California,96062,hydroelectric,Hydroelectric = 1.8 MW,Conventional Hydroelectric,1.4,1.8,,,,,1.8,,,,,,,,"EIA-860, EIA-860M and EIA-923",202305,-122.02093,40.570817
-121.409686999904,39.8259070000227,11685,231,Cresta,14328,Pacific Gas & Electric Co.,Electric Utility,"Hwy 70, 9 mi SW/O Storrie",Storrie,Butte,California,95980,hydroelectric,Hydroelectric = 70 MW,Conventional Hydroelectric,73.8,70,,,,,70,,,,,,,,"EIA-860, EIA-860M and EIA-923",202305,-121.409687,39.825907
-121.631818999644,39.8692650000039,11686,232,De Sabla,14328,Pacific Gas & Electric Co.,Electric Utility,De Sabla Powerhouse Road,Magalia,Butte,California,95954,hydroelectric,Hydroelectric = 18.5 MW,Conventional Hydroelectric,18.4,18.5,,,,,18.5,,,,,,,,"EIA-860, EIA-860M and EIA-923",202305,-121.631819,39.869265
-120.844300000273,39.2980700002098,11687,233,Deer Creek PH,14328,Pacific Gas & Electric Co.,Electric Utility,Chalk Bluff Road,Nevada City,Nevada,California,95959,hydroelectric,Hydroelectric = 5.7 MW,Conventional Hydroelectric,5.5,5.7,,,,,5.7,,,,,,,,"EIA-860, EIA-860M and EIA-923",202305,-120.8443,39.29807
-120.767436999562,39.2568729997689,11688,235,Drum 1,14328,Pacific Gas & Electric Co.,Electric Utility,Drum Powerhouse Road,Alta,Placer,California,95701,hydroelectric,Hydroelectric = 54 MW,Conventional Hydroelectric,49.2,54,,,,,54,,,,,,,,"EIA-860, EIA-860M and EIA-923",202305,-120.767437,39.256873
-120.76704599975,39.2573880001619,11689,236,Drum 2,14328,Pacific Gas & Electric Co.,Electric Utility,Drum Powerhouse Road,Alta,Placer,California,95701,hydroelectric,Hydroelectric = 49.5 MW,Conventional Hydroelectric,53.1,49.5,,,,,49.5,,,,,,,,"EIA-860, EIA-860M and EIA-923",202305,-120.767046,39.257388
-120.835586999584,39.216984999766,11690,237,Dutch Flat,14328,Pacific Gas & Electric Co.,Electric Utility,Dutch Flat Road,Alta,Placer,California,95701,hydroelectric,Hydroelectric = 22 MW,Conventional Hydroelectric,22,22,,,,,22,,,,,,,,"EIA-860, EIA-860M and EIA-923",202305,-120.835587,39.216985
-120.619152000391,38.79357400021,11691,238,El Dorado,25915,El Dorado Irrigation District,Electric Utility,1000 Powerhouse Road,Pollock Pines,El Dorado,California,95667,hydroelectric,Hydroelectric = 20.8 MW,Conventional Hydroelectric,20,20.8,,,,,20.8,,,,,,,,"EIA-860, EIA-860M and EIA-923",202305,-120.619152,38.793574
-120.669901000047,38.3309849999442,11692,239,Electra,14328,Pacific Gas & Electric Co.,Electric Utility,Electric Road off Highway 49,Jackson,Amador,California,95642,hydroelectric,Hydroelectric = 98 MW,Conventional Hydroelectric,102.5,98,,,,,98,,,,,,,,"EIA-860, EIA-860M and EIA-923",202305,-120.669901,38.330985
-119.020250000107,36.927424000264,11693,240,Haas,14328,Pacific Gas & Electric Co.,Electric Utility,Trimmer Springs Road,Balch Camp,Fresno,California,93649,hydroelectric,Hydroelectric = 144 MW,Conventional Hydroelectric,135,144,,,,,144,,,,,,,,"EIA-860, EIA-860M and EIA-923",202305,-119.02025,36.927424
-121.041932000233,38.9569849998468,11694,241,Halsey,14328,Pacific Gas & Electric Co.,Electric Utility,Dry Creek Road,Auburn,Placer,California,95603,hydroelectric,Hydroelectric = 11 MW,Conventional Hydroelectric,13.6,11,,,,,11,,,,,,,,"EIA-860, EIA-860M and EIA-923",202305,-121.041932,38.956985
-121.089478999975,40.26871199966,11695,242,Hamilton Branch,14328,Pacific Gas & Electric Co.,Electric Utility,Lake Almanor,Peninsula Village,Plumas,California,96137,hydroelectric,Hydroelectric = 4.8 MW,Conventional Hydroelectric,5.3,4.8,,,,,4.8,,,,,,,,"EIA-860, EIA-860M and EIA-923",202305,-121.089479,40.268712
-121.544462000158,40.9292970002148,11696,243,Hat Creek 1,14328,Pacific Gas & Electric Co.,Electric Utility,"Baun Lake Road, Star Route 1",Burney,Shasta,California,96013,hydroelectric,Hydroelectric = 8.5 MW,Conventional Hydroelectric,10,8.5,,,,,8.5,,,,,,,,"EIA-860, EIA-860M and EIA-923",202305,-121.544462,40.929297
-121.548656999584,40.9606750003197,11697,244,Hat Creek 2,14328,Pacific Gas & Electric Co.,Electric Utility,Hat Creek #2 Powerhouse Rd.,Burney,Shasta,California,96013,hydroelectric,Hydroelectric = 8.5 MW,Conventional Hydroelectric,10,8.5,,,,,8.5,,,,,,,,"EIA-860, EIA-860M and EIA-923",202305,-121.548657,40.960675
-124.210300000182,40.7414999997276,11698,246,Humboldt Bay,14328,Pacific Gas & Electric Co.,Electric Utility,Buhne Pt. 1000 King Salmon Ave,Eureka,Humboldt,California,95503,natural gas,Natural Gas = 163.4 MW,Natural Gas Internal Combustion Engine,167,163.4,,,,,,,163.4,,,,,,"EIA-860, EIA-860M and EIA-923",202305,-124.2103,40.7415
-121.965502000126,40.4009880001506,11699,248,Inskip,14328,Pacific Gas & Electric Co.,Electric Utility,Manton-Viola Road,Manton,Tehama,California,96059,hydroelectric,Hydroelectric = 8 MW,Conventional Hydroelectric,7.6,8,,,,,8,,,,,,,,"EIA-860, EIA-860M and EIA-923",202305,-121.965502,40.400988
-121.975182000387,40.9922949998289,11700,249,James B Black,14328,Pacific Gas & Electric Co.,Electric Utility,Pitt 5 Road,Big Bend,Shasta,California,96065,hydroelectric,Hydroelectric = 172 MW,Conventional Hydroelectric,168.6,172,,,,,172,,,,,,,,"EIA-860, EIA-860M and EIA-923",202305,-121.975182,40.992295
-119.552825999849,37.0924860001707,11701,250,Kerckhoff,14328,Pacific Gas & Electric Co.,Electric Utility,Smalley Road,Auberry,Fresno,California,93602,hydroelectric,Hydroelectric = 25.2 MW,Conventional Hydroelectric,22.6,25.2,,,,,25.2,,,,,,,,"EIA-860, EIA-860M and EIA-923",202305,-119.552826,37.092486
-121.873253000181,40.6778270003402,11702,253,Kilarc,14328,Pacific Gas & Electric Co.,Electric Utility,Fern Road,Whitmore,Shasta,California,96096,hydroelectric,Hydroelectric = 1.6 MW,Conventional Hydroelectric,1.5,1.6,,,,,1.6,,,,,,,,"EIA-860, EIA-860M and EIA-923",202305,-121.873253,40.677827
-119.158777000097,36.888166000287,11703,254,Kings River PH,14328,Pacific Gas & Electric Co.,Electric Utility,Trimmer Springs Road,Balch Camp,Fresno,California,93649,hydroelectric,Hydroelectric = 52 MW,Conventional Hydroelectric,48.6,52,,,,,52,,,,,,,,"EIA-860, EIA-860M and EIA-923",202305,-119.158777,36.888166
-121.570959999556,39.6987550000254,11704,255,Lime Saddle,14328,Pacific Gas & Electric Co.,Electric Utility,"Pentz Road, Rural Route1",Oroville,Butte,California,95965,hydroelectric,Hydroelectric = 2 MW,Conventional Hydroelectric,2,2,,,,,2,,,,,,,,"EIA-860, EIA-860M and EIA-923",202305,-121.57096,39.698755
-120.329904999973,37.5230100001901,11705,258,Merced Falls,12312,Merced Irrigation District,IPP Non-CHP,Merced Falls Road,Snelling,Merced,California,95369,hydroelectric,Hydroelectric = 3.5 MW,Conventional Hydroelectric,3.4,3.5,,,,,3.5,,,,,,,,"EIA-860, EIA-860M and EIA-923",202305,-120.329905,37.52301
-121.782241000146,36.804836999954,11706,260,Dynegy Moss Landing Power Plant Hybrid,54802,Dynegy -Moss Landing LLC,IPP Non-CHP,7301 State Highway 1,Moss Landing,Monterey,California,95039,natural gas,"Battery = 400 MW, Natural Gas = 1020 MW","Batteries; Natural Gas Fired Combined Cycle;",1798,1420,400,,,,,,1020,,,,,,"EIA-860, EIA-860M and EIA-923",202305,-121.782241,36.804837
-120.446395999955,38.1470929996688,11707,261,Murphys,19586,Utica Water & Power Authority,IPP Non-CHP,Utica Power House Rd off Hwy 4,Murphys,Calaveras,California,95247,hydroelectric,Hydroelectric = 1.7 MW,Conventional Hydroelectric,3.6,1.7,,,,,1.7,,,,,,,,"EIA-860, EIA-860M and EIA-923",202305,-120.446396,38.147093
-121.271740999697,39.2364000000138,11708,262,Narrows PH,21140,Yuba County Water Agency,Electric Utility,Engilebright Dam Road,Grass Valley,Nevada,California,95945,hydroelectric,Hydroelectric = 12 MW,Conventional Hydroelectric,10.2,12,,,,,12,,,,,,,,"EIA-860, EIA-860M and EIA-923",202305,-121.271741,39.2364
-120.326537000377,38.0321029997071,11709,264,Phoenix,14328,Pacific Gas & Electric Co.,Electric Utility,Shaws Flat Road,Sonora,Tuolumne,California,95370,hydroelectric,Hydroelectric = 2 MW,Conventional Hydroelectric,1.6,2,,,,,2,,,,,,,,"EIA-860, EIA-860M and EIA-923",202305,-120.326537,38.032103
-121.498242999664,40.990839999943,11710,265,Pit 1,14328,Pacific Gas & Electric Co.,Electric Utility,"Pit 1 Road, Star Route 1",Burney,Shasta,California,96013,hydroelectric,Hydroelectric = 61 MW,Conventional Hydroelectric,69.2,61,,,,,61,,,,,,,,"EIA-860, EIA-860M and EIA-923",202305,-121.498243,40.99084
-121.748138999922,40.9974479998845,11711,266,Pit 3,14328,Pacific Gas & Electric Co.,Electric Utility,"Pitt 3 Road, Star Route 1",Burney,Shasta,California,96013,hydroelectric,Hydroelectric = 69.9 MW,Conventional Hydroelectric,80.1,69.9,,,,,69.9,,,,,,,,"EIA-860, EIA-860M and EIA-923",202305,-121.748139,40.997448
-121.849439999591,40.9863610002793,11712,267,Pit 4,14328,Pacific Gas & Electric Co.,Electric Utility,Pit River Road,Big Bend,Shasta,California,96011,hydroelectric,Hydroelectric = 95 MW,Conventional Hydroelectric,103.4,95,,,,,95,,,,,,,,"EIA-860, EIA-860M and EIA-923",202305,-121.84944,40.986361
-121.977594000282,40.986196999795,11713,268,Pit 5,14328,Pacific Gas & Electric Co.,Electric Utility,Pit 5 Road,Big Bend,Shasta,California,96011,hydroelectric,Hydroelectric = 160 MW,Conventional Hydroelectric,141.6,160,,,,,160,,,,,,,,"EIA-860, EIA-860M and EIA-923",202305,-121.977594,40.986197
-121.992905999895,40.9225680002017,11714,269,Pit 6,14328,Pacific Gas & Electric Co.,Electric Utility,Big Bend Road,Montgomery Creek,Shasta,California,96065,hydroelectric,Hydroelectric = 80 MW,Conventional Hydroelectric,79.2,80,,,,,80,,,,,,,,"EIA-860, EIA-860M and EIA-923",202305,-121.992906,40.922568
-121.990797999775,40.8474620000923,11715,270,Pit 7,14328,Pacific Gas & Electric Co.,Electric Utility,Fender's Ferry Road,Montgomery Creek,Shasta,California,96065,hydroelectric,Hydroelectric = 113 MW,Conventional Hydroelectric,109.8,113,,,,,113,,,,,,,,"EIA-860, EIA-860M and EIA-923",202305,-121.990798,40.847462
-121.469813999698,39.7228919996893,11716,272,Poe,14328,Pacific Gas & Electric Co.,Electric Utility,Poe Road off Highway 70,Storrie,Butte,California,95980,hydroelectric,Hydroelectric = 120 MW,Conventional Hydroelectric,142.8,120,,,,,120,,,,,,,,"EIA-860, EIA-860M and EIA-923",202305,-121.469814,39.722892
-123.12793399993,39.3617859999123,11717,274,Potter Valley,14328,Pacific Gas & Electric Co.,Electric Utility,End of Powerhouse Road,Potter Valley,Mendocino,California,95469,hydroelectric,Hydroelectric = 9.2 MW,Conventional Hydroelectric,9.4,9.2,,,,,9.2,,,,,,,,"EIA-860, EIA-860M and EIA-923",202305,-123.127934,39.361786
-121.345225999868,39.9052099998815,11718,275,Rock Creek,14328,Pacific Gas & Electric Co.,Electric Utility,"Hwy 70, 35 mi E/O Oroville",Storrie,Plumas,California,95980,hydroelectric,Hydroelectric = 126 MW,Conventional Hydroelectric,126,126,,,,,126,,,,,,,,"EIA-860, EIA-860M and EIA-923",202305,-121.345226,39.90521
-119.497507999774,37.203233000326,11719,276,San Joaquin 2,14328,Pacific Gas & Electric Co.,Electric Utility,County Road 222,North Fork,Madera,California,93643,hydroelectric,Hydroelectric = 3.2 MW,Conventional Hydroelectric,2.8,3.2,,,,,3.2,,,,,,,,"EIA-860, EIA-860M and EIA-923",202305,-119.497508,37.203233
-119.519352000161,37.2537180002164,11720,277,San Joaquin 3,14328,Pacific Gas & Electric Co.,Electric Utility,County Road 222,North Fork,Madera,California,93643,hydroelectric,Hydroelectric = 4.2 MW,Conventional Hydroelectric,4,4.2,,,,,4.2,,,,,,,,"EIA-860, EIA-860M and EIA-923",202305,-119.519352,37.253718
-120.218109999733,38.4979139999109,11721,279,Salt Springs,14328,Pacific Gas & Electric Co.,Electric Utility,Tiger Creek-Salt Springs Road,Pioneer,Amador,California,95666,hydroelectric,Hydroelectric = 44 MW,Conventional Hydroelectric,42,44,,,,,44,,,,,,,,"EIA-860, EIA-860M and EIA-923",202305,-120.21811,38.497914
-121.879185999832,40.3953960002101,11722,280,South,14328,Pacific Gas & Electric Co.,Electric Utility,South Powerhouse Road,Manton,Tehama,California,96059,hydroelectric,Hydroelectric = 7 MW,Conventional Hydroelectric,6.7,7,,,,,7,,,,,,,,"EIA-860, EIA-860M and EIA-923",202305,-121.879186,40.395396
-120.644807000065,39.3246130001067,11723,281,Spaulding 1,14328,Pacific Gas & Electric Co.,Electric Utility,11028 Lake Spaulding Rd,Emigrant Gap,Nevada,California,95715,hydroelectric,Hydroelectric = 7 MW,Conventional Hydroelectric,7,7,,,,,7,,,,,,,,"EIA-860, EIA-860M and EIA-923",202305,-120.644807,39.324613
-120.645375000328,39.3245919999836,11724,282,Spaulding 2,14328,Pacific Gas & Electric Co.,Electric Utility,11028 Lake Spaulding Rd,Emigrant Gap,Nevada,California,95715,hydroelectric,Hydroelectric = 4.4 MW,Conventional Hydroelectric,3.7,4.4,,,,,4.4,,,,,,,,"EIA-860, EIA-860M and EIA-923",202305,-120.645375,39.324592
-120.635466999562,39.3376789997381,11725,283,Spaulding 3,14328,Pacific Gas & Electric Co.,Electric Utility,11028 Lake Spaulding Rd,Emigrant Gap,Nevada,California,95715,hydroelectric,Hydroelectric = 5.8 MW,Conventional Hydroelectric,6.6,5.8,,,,,5.8,,,,,,,,"EIA-860, EIA-860M and EIA-923",202305,-120.635467,39.337679
-120.111679999779,38.1865299996638,11726,284,Spring Gap,14328,Pacific Gas & Electric Co.,Electric Utility,Frazer Flat Road,Long Barn,Tuolumne,California,95335,hydroelectric,Hydroelectric = 7 MW,Conventional Hydroelectric,6,7,,,,,7,,,,,,,,"EIA-860, EIA-860M and EIA-923",202305,-120.11168,38.18653
-120.370324999813,38.1390480001004,11727,285,Stanislaus,14328,Pacific Gas & Electric Co.,Electric Utility,Camp Nine Road,Vallecito,Tuolumne,California,95251,hydroelectric,Hydroelectric = 91 MW,Conventional Hydroelectric,81.9,91,,,,,91,,,,,,,,"EIA-860, EIA-860M and EIA-923",202305,-120.370325,38.139048
-122.744999999817,38.7769999997928,11728,286,Geysers Unit 5-20,7160,Geysers Power Co LLC,IPP Non-CHP,10350 Socrates Mine Road,Middletown,Sonoma,California,95461,geothermal,Geothermal = 644MW,Geothermal,1163,644,,,,644,,,,,,,,,"EIA-860, EIA-860M and EIA-923",202305,-122.745,38.777
-120.492644999688,38.4492909999194,11729,287,Tiger Creek,14328,Pacific Gas & Electric Co.,Electric Utility,Tiger Creek Road,Pioneer,Amador,California,95666,hydroelectric,Hydroelectric = 58 MW,Conventional Hydroelectric,52.2,58,,,,,58,,,,,,,,"EIA-860, EIA-860M and EIA-923",202305,-120.492645,38.449291
-118.707103999783,36.1630759998768,11730,289,Tule River,14328,Pacific Gas & Electric Co.,Electric Utility,Highway 190,Springville,Tulare,California,93265,hydroelectric,Hydroelectric = 6.4 MW,Conventional Hydroelectric,8.4,6.4,,,,,6.4,,,,,,,,"EIA-860, EIA-860M and EIA-923",202305,-118.707104,36.163076
-121.867080000331,40.4591110000521,11731,290,Volta 1,14328,Pacific Gas & Electric Co.,Electric Utility,Manton-Viola Road,Manton,Shasta,California,96059,hydroelectric,Hydroelectric = 9 MW,Conventional Hydroelectric,8.5,9,,,,,9,,,,,,,,"EIA-860, EIA-860M and EIA-923",202305,-121.86708,40.459111
-120.549572000116,38.4208979999921,11732,291,West Point PH,14328,Pacific Gas & Electric Co.,Electric Utility,Red Corral Road,Pioneer,Amador,California,95666,hydroelectric,Hydroelectric = 14.5 MW,Conventional Hydroelectric,13.6,14.5,,,,,14.5,,,,,,,,"EIA-860, EIA-860M and EIA-923",202305,-120.549572,38.420898
-121.098524999852,38.889862000131,11733,292,Wise,14328,Pacific Gas & Electric Co.,Electric Utility,10850 Wise Road,Auburn,Placer,California,95603,hydroelectric,Hydroelectric = 17.2 MW,Conventional Hydroelectric,16.4,17.2,,,,,17.2,,,,,,,,"EIA-860, EIA-860M and EIA-923",202305,-121.098525,38.889862
-119.504724000263,37.1510499997413,11734,293,A G Wishon,14328,Pacific Gas & Electric Co.,Electric Utility,County Road 222,North Fork,Madera,California,93643,hydroelectric,Hydroelectric = 20 MW,Conventional Hydroelectric,12.8,20,,,,,20,,,,,,,,"EIA-860, EIA-860M and EIA-923",202305,-119.504724,37.15105
-122.335317000236,41.9789139996725,11735,294,Copco 1,14354,PacifiCorp,Electric Utility,"Copco Rd, 20 Mi East of I5",Hornbrook,Siskiyou,California,96044,hydroelectric,Hydroelectric = 28 MW,Conventional Hydroelectric,20,28,,,,,28,,,,,,,,"EIA-860, EIA-860M and EIA-923",202305,-122.335317,41.978914
-122.360454999701,41.985605000006,11736,296,Fall Creek,14354,PacifiCorp,Electric Utility,"Copco Rd, 18 Mi East of I5",Hornbrook,Siskiyou,California,96044,hydroelectric,Hydroelectric = 1.9 MW,Conventional Hydroelectric,2.1,1.9,,,,,1.9,,,,,,,,"EIA-860, EIA-860M and EIA-923",202305,-122.360455,41.985605
-122.436780000287,41.9329809999737,11737,297,Iron Gate,14354,PacifiCorp,Electric Utility,"Copco Rd, 9 Mi East of I5",Hornbrook,Siskiyou,California,96044,hydroelectric,Hydroelectric = 18.8 MW,Conventional Hydroelectric,18,18.8,,,,,18.8,,,,,,,,"EIA-860, EIA-860M and EIA-923",202305,-122.43678,41.932981
-96.2525000001836,31.4218999997478,11738,298,Limestone,54888,NRG Texas Power LLC,IPP Non-CHP,"Route1, Box 85",Jewett,Limestone,Texas,75846,coal,Coal = 1689 MW,Conventional Steam Coal,1849.8,1689,,,1689,,,,,,,,,,"EIA-860, EIA-860M and EIA-923",202305,-96.2525,31.4219
-112.853299999636,38.4888999997267,11739,299,Blundell,14354,PacifiCorp,Electric Utility,10 mi east of Highway 257,Milford,Beaver,Utah,84751,geothermal,Geothermal = 31.7MW,Geothermal,44.8,31.7,,,,31.7,,,,,,,,,"EIA-860, EIA-860M and EIA-923",202305,-112.8533,38.4889
-135.122750000119,56.9862839998689,11740,313,Green Lake,17271,City & Borough of Sitka - (AK),Electric Utility,SMC,Sitka,Sitka,Alaska,99835,hydroelectric,Hydroelectric = 18.6 MW,Conventional Hydroelectric,18.6,18.6,,,,,18.6,,,,,,,,"EIA-860, EIA-860M and EIA-923",202305,-135.12275,56.986284
-115.392025999783,32.6730969997273,11741,314,Drop 5,9216,Imperial Irrigation District,Electric Utility,Calexico New Port of Entry,Calexico,Imperial,California,92231,hydroelectric,Hydroelectric = 3.8 MW,Conventional Hydroelectric,4,3.8,,,,,3.8,,,,,,,,"EIA-860, EIA-860M and EIA-923",202305,-115.392026,32.673097
-118.100899999755,33.7687999998777,11742,315,AES Alamitos LLC,22148,AES Alamitos LLC,IPP Non-CHP,690 N Studebaker Road,Long Beach,Los Angeles,California,90803,natural gas,Natural Gas = 1152 MW,Natural Gas Steam Turbine,1115,1152,,,,,,,1152,,,,,,"EIA-860, EIA-860M and EIA-923",202305,-118.1009,33.7688
-118.479499999626,34.0968999999633,11743,316,Sepulveda Canyon,12397,Metropolitan Water District of S CA,Electric Utility,1751 N. Sepulveda Blvd,Los Angeles,Los Angeles,California,90049,hydroelectric,Hydroelectric = 8.5 MW,Conventional Hydroelectric,8.5,8.5,,,,,8.5,,,,,,,,"EIA-860, EIA-860M and EIA-923",202305,-118.4795,34.0969
-119.239600000057,37.2041999996941,11744,317,Big Creek 1,17609,Southern California Edison Co,Electric Utility,55325 Cascada Road,Big Creek,Fresno,California,93605,hydroelectric,Hydroelectric = 88.4 MW,Conventional Hydroelectric,88.4,88.4,,,,,88.4,,,,,,,,"EIA-860, EIA-860M and EIA-923",202305,-119.2396,37.2042
-119.306899999784,37.1999999997999,11745,318,Big Creek 2,17609,Southern California Edison Co,Electric Utility,53615 Upper Chawanakee Road,Auberry,Fresno,California,93605,hydroelectric,Hydroelectric = 66.6 MW,Conventional Hydroelectric,66.6,66.6,,,,,66.6,,,,,,,,"EIA-860, EIA-860M and EIA-923",202305,-119.3069,37.2
-119.386623000103,37.1485170000543,11746,319,Big Creek 3,17609,Southern California Edison Co,Electric Utility,47369 Lower Redinger Road,Auberry,Fresno,California,93602,hydroelectric,Hydroelectric = 173.5 MW,Conventional Hydroelectric,174.5,173.5,,,,,173.5,,,,,,,,"EIA-860, EIA-860M and EIA-923",202305,-119.386623,37.148517
-119.489800000089,37.1390000002601,11747,320,Big Creek 4,17609,Southern California Edison Co,Electric Utility,Sierra National Forest,North Fork,Madera,California,93643,hydroelectric,Hydroelectric = 100 MW,Conventional Hydroelectric,100,100,,,,,100,,,,,,,,"EIA-860, EIA-860M and EIA-923",202305,-119.4898,37.139
-119.328899999807,37.2095999999634,11748,321,Big Creek 8,17609,Southern California Edison Co,Electric Utility,51374 Mammoth Pool Road,Auberry,Fresno,California,93605,hydroelectric,Hydroelectric = 70.8 MW,Conventional Hydroelectric,75,70.8,,,,,70.8,,,,,,,,"EIA-860, EIA-860M and EIA-923",202305,-119.3289,37.2096
-119.306810000271,37.2000620001666,11749,322,Big Creek 2A,17609,Southern California Edison Co,Electric Utility,Sierra National Forest,Auberry,Fresno,California,93605,hydroelectric,Hydroelectric = 100 MW,Conventional Hydroelectric,110,100,,,,,100,,,,,,,,"EIA-860, EIA-860M and EIA-923",202305,-119.30681,37.200062
-118.573338999657,37.2735810002739,11750,323,Bishop Creek 2,17609,Southern California Edison Co,Electric Utility,Hwy 168 Inyo National Forest,Bishop,Inyo,California,93514,hydroelectric,Hydroelectric = 7.3 MW,Conventional Hydroelectric,7.3,7.3,,,,,7.3,,,,,,,,"EIA-860, EIA-860M and EIA-923",202305,-118.573339,37.273581
-118.531957000268,37.3019620001026,11751,324,Bishop Creek 3,17609,Southern California Edison Co,Electric Utility,Hwy168 Inyo National Forest,Bishop,Inyo,California,93514,hydroelectric,Hydroelectric = 8.4 MW,Conventional Hydroelectric,8.4,8.4,,,,,8.4,,,,,,,,"EIA-860, EIA-860M and EIA-923",202305,-118.531957,37.301962
-118.501713999909,37.3230349997438,11752,325,Bishop Creek 4,17609,Southern California Edison Co,Electric Utility,Route 1 Plant 4,Bishop,Inyo,California,93514,hydroelectric,Hydroelectric = 8.2 MW,Conventional Hydroelectric,8.2,8.2,,,,,8.2,,,,,,,,"EIA-860, EIA-860M and EIA-923",202305,-118.501714,37.323035
-118.479699999642,37.3344000003481,11753,326,Bishop Creek 5,17609,Southern California Edison Co,Electric Utility,Inyo National Forest,Bishop,Inyo,California,93514,hydroelectric,Hydroelectric = 3.8 MW,Conventional Hydroelectric,4.5,3.8,,,,,3.8,,,,,,,,"EIA-860, EIA-860M and EIA-923",202305,-118.4797,37.3344
-118.462799999592,37.349900000051,11754,327,Bishop Creek 6,17609,Southern California Edison Co,Electric Utility,Plant 6 Rd Inyo Nat'l Forest,Bishop,Inyo,California,93514,hydroelectric,Hydroelectric = 1.6 MW,Conventional Hydroelectric,1.6,1.6,,,,,1.6,,,,,,,,"EIA-860, EIA-860M and EIA-923",202305,-118.4628,37.3499
-117.397119000204,34.1551619997982,11755,332,Fontana,17609,Southern California Edison Co,Electric Utility,3165 N. Riverside,Rialto,San Bernardino,California,92336,hydroelectric,Hydroelectric = 3 MW,Conventional Hydroelectric,3,3,,,,,3,,,,,,,,"EIA-860, EIA-860M and EIA-923",202305,-117.397119,34.155162
-117.97920000002,33.643899999957,11756,335,AES Huntington Beach LLC,23693,AES Huntington Beach LLC,IPP Non-CHP,21730 Newland Street,Huntington Beach,Orange,California,92646,natural gas,Natural Gas = 225.8 MW,Natural Gas Steam Turbine,218,225.8,,,,,,,225.8,,,,,,"EIA-860, EIA-860M and EIA-923",202305,-117.9792,33.6439
-118.87988000031,36.4613260003482,11757,336,Kaweah 2,17609,Southern California Edison Co,Electric Utility,Kaweah River Drive,Three Rivers,Tulare,California,93271,hydroelectric,Hydroelectric = 1.8 MW,Conventional Hydroelectric,1.8,1.8,,,,,1.8,,,,,,,,"EIA-860, EIA-860M and EIA-923",202305,-118.87988,36.461326
-118.862022999835,36.4650660001465,11758,337,Kaweah 1,17609,Southern California Edison Co,Electric Utility,44511 Sierra Drive,Three Rivers,Tulare,California,93271,hydroelectric,Hydroelectric = 2.3 MW,Conventional Hydroelectric,2.3,2.3,,,,,2.3,,,,,,,,"EIA-860, EIA-860M and EIA-923",202305,-118.862023,36.465066
-118.835645000088,36.4860590002098,11759,338,Kaweah 3,17609,Southern California Edison Co,Electric Utility,Kaweah River Drive,Three Rivers,Tulare,California,93271,hydroelectric,Hydroelectric = 4.5 MW,Conventional Hydroelectric,4.8,4.5,,,,,4.5,,,,,,,,"EIA-860, EIA-860M and EIA-923",202305,-118.835645,36.486059
-118.436232999699,35.7761849996376,11760,339,Kern River 3,17609,Southern California Edison Co,Electric Utility,15115 Sierra Way,Kernville,Kern,California,93238,hydroelectric,Hydroelectric = 40.2 MW,Conventional Hydroelectric,40.3,40.2,,,,,40.2,,,,,,,,"EIA-860, EIA-860M and EIA-923",202305,-118.436233,35.776185
-118.779589999696,35.4603030002258,11761,340,Kern River 1,17609,Southern California Edison Co,Electric Utility,Hwy178 Sequoia Nat'l Forest,Bakersfield,Kern,California,93301,hydroelectric,Hydroelectric = 26.4 MW,Conventional Hydroelectric,26.4,26.4,,,,,26.4,,,,,,,,"EIA-860, EIA-860M and EIA-923",202305,-118.77959,35.460303
-118.224799999671,33.7640999997715,11762,341,Long Beach Generation LLC,11181,Long Beach Generation LLC,IPP Non-CHP,2665 Pier S Lane,Long Beach,Los Angeles,California,90802,natural gas,Natural Gas = 260 MW,Natural Gas Fired Combustion Turbine,252,260,,,,,,,260,,,,,,"EIA-860, EIA-860M and EIA-923",202305,-118.2248,33.7641
-119.172014999925,38.0427289996843,11763,342,Lundy,17609,Southern California Edison Co,Electric Utility,9 miles N. of Lee Vining,Lee Vining,Mono,California,93541,hydroelectric,Hydroelectric = 3 MW,Conventional Hydroelectric,3,3,,,,,3,,,,,,,,"EIA-860, EIA-860M and EIA-923",202305,-119.172015,38.042729
-119.337983000392,37.2203019996706,11764,344,Mammoth Pool,17609,Southern California Edison Co,Electric Utility,Sierra National Forest,North Fork,Madera,California,93643,hydroelectric,Hydroelectric = 190 MW,Conventional Hydroelectric,190,190,,,,,190,,,,,,,,"EIA-860, EIA-860M and EIA-923",202305,-119.337983,37.220302
-119.168900000049,34.1291999998305,11765,350,Ormond Beach,63843,"Ormond Beach Power, LLC",IPP Non-CHP,6635 S. Edison Drive,Oxnard,Ventura,California,93033,natural gas,Natural Gas = 1491 MW,Natural Gas Steam Turbine,1612,1491,,,,,,,1491,,,,,,"EIA-860, EIA-860M and EIA-923",202305,-119.1689,34.1292
-119.216100000359,37.9442370002833,11766,353,Poole,17609,Southern California Edison Co,Electric Utility,Inyo National Forest,Lee Vining,Mono,California,93541,hydroelectric,Hydroelectric = 11.3 MW,Conventional Hydroelectric,11.3,11.3,,,,,11.3,,,,,,,,"EIA-860, EIA-860M and EIA-923",202305,-119.2161,37.944237
-119.158936000105,37.2570449996522,11767,354,Portal,17609,Southern California Edison Co,Electric Utility,Hwy168 Sierra Nat'l Forest,Lakeshore,Fresno,California,93634,hydroelectric,Hydroelectric = 10.8 MW,Conventional Hydroelectric,10.8,10.8,,,,,10.8,,,,,,,,"EIA-860, EIA-860M and EIA-923",202305,-119.158936,37.257045
-118.395000000273,33.8503999997235,11768,356,AES Redondo Beach LLC,22484,AES Redondo Beach LLC,IPP Non-CHP,1100 N. Harbor Drive,Redondo Beach,Los Angeles,California,90277,natural gas,Natural Gas = 830 MW,Natural Gas Steam Turbine,821.4,830,,,,,,,830,,,,,,"EIA-860, EIA-860M and EIA-923",202305,-118.395,33.8504
-119.123283999977,37.766954000075,11769,357,Rush Creek,17609,Southern California Edison Co,Electric Utility,June Lake Loop Sierra Ntnl For,June lake,Mono,California,93529,hydroelectric,Hydroelectric = 11.4 MW,Conventional Hydroelectric,13.1,11.4,,,,,11.4,,,,,,,,"EIA-860, EIA-860M and EIA-923",202305,-119.123284,37.766954
-117.241800000118,34.0818000000975,11770,358,Mountainview Generating Station,17609,Southern California Edison Co,Electric Utility,2492 West San Bernardino Ave.,Redlands,San Bernardino,California,92374,natural gas,Natural Gas = 1018 MW,Natural Gas Fired Combined Cycle,1036.8,1018,,,,,,,1018,,,,,,"EIA-860, EIA-860M and EIA-923",202305,-117.2418,34.0818
-117.058481000412,34.1452200001397,11771,361,Santa Ana 1,17609,Southern California Edison Co,Electric Utility,San Barnardino National Forest,Highlands,San Bernardino,California,92346,hydroelectric,Hydroelectric = 3.2 MW,Conventional Hydroelectric,3.2,3.2,,,,,3.2,,,,,,,,"EIA-860, EIA-860M and EIA-923",202305,-117.058481,34.14522
-117.099091000223,34.1072449996557,11772,363,Santa Ana 3,17609,Southern California Edison Co,Electric Utility,San Bernardino National Forest,Highlands,San Bernardino,California,92346,hydroelectric,Hydroelectric = 3.1 MW,Conventional Hydroelectric,3.1,3.1,,,,,3.1,,,,,,,,"EIA-860, EIA-860M and EIA-923",202305,-117.099091,34.107245
-118.788868000275,36.1356799997437,11773,365,Lower Tule River,17609,Southern California Edison Co,Electric Utility,Hwy190 Sequoia National Forest,Springdale,Tulare,California,93265,hydroelectric,Hydroelectric = 2.6 MW,Conventional Hydroelectric,2.6,2.6,,,,,2.6,,,,,,,,"EIA-860, EIA-860M and EIA-923",202305,-118.788868,36.13568
-119.333900000221,46.4710999997051,11774,371,Columbia Generating Station,20160,Energy Northwest,Electric Utility,76 N Power Plant Loop,Richland,Benton,Washington,99352,nuclear,Nuclear = 1151 MW,Nuclear,1200,1151,,,,,,,,1151,,,,,"EIA-860, EIA-860M and EIA-923",202305,-119.3339,46.4711
-120.850699999904,38.2569000003442,11775,376,Pardee,5571,East Bay Municipal Util Dist,Electric Utility,Pardee Dam Road at Mokelumne R,Valley Springs,Calaveras,California,95252,hydroelectric,Hydroelectric = 27.7 MW,Conventional Hydroelectric,23.6,27.7,,,,,27.7,,,,,,,,"EIA-860, EIA-860M and EIA-923",202305,-120.8507,38.2569
-118.278199999596,34.1555999998477,11776,377,Grayson,7294,City of Glendale - (CA),Electric Utility,800 Air Way,Glendale,Los Angeles,California,91201,natural gas,Natural Gas = 256 MW,"Natural Gas Fired Combined Cycle; Natural Gas Fired Combustion Turbine; Natural Gas Steam Turbine",300.9,256,,,,,,,256,,,,,,"EIA-860, EIA-860M and EIA-923",202305,-118.2782,34.1556
-93.4982660002332,47.2872060000115,11777,378,Prairie River,12647,"ALLETE, Inc.",Electric Utility,County Rd 61,Grand Rapids,Itasca,Minnesota,55744,hydroelectric,Hydroelectric = 0.7 MW,Conventional Hydroelectric,1,0.7,,,,,0.7,,,,,,,,"EIA-860, EIA-860M and EIA-923",202305,-93.498266,47.287206
-119.967499999622,37.8966489998468,11778,380,Dion R Holm,16612,City & County of San Francisco,Electric Utility,Cherry Lake Road,Groveland,Tuolumne,California,95321,hydroelectric,Hydroelectric = 156.8 MW,Conventional Hydroelectric,156.8,156.8,,,,,156.8,,,,,,,,"EIA-860, EIA-860M and EIA-923",202305,-119.9675,37.896649
-120.299254000084,37.8093879997529,11779,381,Moccasin,16612,City & County of San Francisco,Electric Utility,Hwy 120-49 junction,Moccasin,Tuolumne,California,95347,hydroelectric,Hydroelectric = 100 MW,Conventional Hydroelectric,100,100,,,,,100,,,,,,,,"EIA-860, EIA-860M and EIA-923",202305,-120.299254,37.809388
-119.953233000297,37.8776670000792,11780,382,R C Kirkwood,16612,City & County of San Francisco,Electric Utility,Cherry Lake Road,Groveland,Tuolumne,California,95321,hydroelectric,Hydroelectric = 115.5 MW,Conventional Hydroelectric,115.5,115.5,,,,,115.5,,,,,,,,"EIA-860, EIA-860M and EIA-923",202305,-119.953233,37.877667
-88.1238270000491,41.494635999923,11781,384,Joliet 29,12384,Midwest Generations EME LLC,IPP Non-CHP,1800 Channahon Rd,Joliet,Will,Illinois,60436,natural gas,Natural Gas = 1036 MW,Natural Gas Steam Turbine,1320,1036,,,,,,,1036,,,,,,"EIA-860, EIA-860M and EIA-923",202305,-88.123827,41.494636
-115.030975000415,32.7054349999424,11782,385,Drop 2 (CA),9216,Imperial Irrigation District,Electric Utility,Interstate 8,Holtville,Imperial,California,92250,hydroelectric,Hydroelectric = 9.8 MW,Conventional Hydroelectric,10,9.8,,,,,9.8,,,,,,,,"EIA-860, EIA-860M and EIA-923",202305,-115.030975,32.705435
-115.126103000234,32.7054280003456,11783,386,Drop 3 (CA),9216,Imperial Irrigation District,Electric Utility,Interstate 8,Holtville,Imperial,California,92250,hydroelectric,Hydroelectric = 8.9 MW,Conventional Hydroelectric,9.2,8.9,,,,,8.9,,,,,,,,"EIA-860, EIA-860M and EIA-923",202305,-115.126103,32.705428
-115.219066999856,32.7053409996951,11784,387,Drop 4,9216,Imperial Irrigation District,Electric Utility,3675 E. Highway 98,Holtville,Imperial,California,92250,hydroelectric,Hydroelectric = 20 MW,Conventional Hydroelectric,19.6,20,,,,,20,,,,,,,,"EIA-860, EIA-860M and EIA-923",202305,-115.219067,32.705341
-114.713858000073,32.7366420003776,11785,388,Pilot Knob,9216,Imperial Irrigation District,Electric Utility,450 Algodones Rd.,Winterhaven,Imperial,California,92283,hydroelectric,Hydroelectric = 0 MW,Conventional Hydroelectric,33,0,,,,,0,,,,,,,,"EIA-860, EIA-860M and EIA-923",202305,-114.713858,32.736642
-115.540000000406,32.8022219996852,11786,389,El Centro Hybrid,9216,Imperial Irrigation District,Electric Utility,485 E. Villa Avenue,El Centro,Imperial,California,92243,natural gas,"Battery = 18.9 MW, Natural Gas = 293.1 MW","Batteries; Natural Gas Fired Combined Cycle; Natural Gas Steam Turbine",388.3,312,18.9,,,,,,293.1,,,,,,"EIA-860, EIA-860M and EIA-923",202305,-115.54,32.802222
-146.30330000022,61.0827999998105,11787,390,Solomon Gulch,4329,"Copper Valley Elec Assn, Inc",Electric Utility,1455 Dayville road,Valdez,Valdez Cordova,Alaska,99686,hydroelectric,Hydroelectric = 12 MW,Conventional Hydroelectric,12,12,,,,,12,,,,,,,,"EIA-860, EIA-860M and EIA-923",202305,-146.3033,61.0828
-118.324075000134,37.1427950001392,11788,391,Big Pine Creek,11208,Los Angeles Department of Water & Power,Electric Utility,400 Cone Rd.,Big Pine,Inyo,California,93513,hydroelectric,Hydroelectric = 3 MW,Conventional Hydroelectric,3.2,3,,,,,3,,,,,,,,"EIA-860, EIA-860M and EIA-923",202305,-118.324075,37.142795
-118.656637999984,34.5872369996752,11789,392,Castaic,11208,Los Angeles Department of Water & Power,Electric Utility,37700 Templin Hwy,Castaic,Los Angeles,California,91384,pumped storage,"Pumped Storage = 1623 MW,Hydroelectric = 51.5 MW","Hydroelectric Pumped Storage; Conventional Hydroelectric;",1682,1674.5,,,,,51.5,1623,,,,,,,"EIA-860, EIA-860M and EIA-923",202305,-118.656638,34.587237
-118.556987999603,37.4379210001127,11790,393,Control Gorge,11208,Los Angeles Department of Water & Power,Electric Utility,1501 Gorge Rd.,Bishop,Inyo,California,93514,hydroelectric,Hydroelectric = 37.5 MW,Conventional Hydroelectric,37.5,37.5,,,,,37.5,,,,,,,,"EIA-860, EIA-860M and EIA-923",202305,-118.556988,37.437921
-118.043890000384,36.4434209997988,11791,394,Cottonwood,11208,Los Angeles Department of Water & Power,Electric Utility,651 Power House Rd.,Lone Pine,Inyo,California,93545,hydroelectric,Hydroelectric = 2.4 MW,Conventional Hydroelectric,1.6,2.4,,,,,2.4,,,,,,,,"EIA-860, EIA-860M and EIA-923",202305,-118.04389,36.443421
-118.494448999914,34.318248000353,11792,396,Foothill,11208,Los Angeles Department of Water & Power,Electric Utility,14351 San Fernando Rd.,Sylmar,Los Angeles,California,91342,hydroelectric,Hydroelectric = 8.6 MW,Conventional Hydroelectric,8.8,8.6,,,,,8.6,,,,,,,,"EIA-860, EIA-860M and EIA-923",202305,-118.494449,34.318248
-118.413377000432,34.1039309997268,11793,397,Franklin (CA),11208,Los Angeles Department of Water & Power,Electric Utility,1298 N. Beverley Dr.,Beverley Hills,Los Angeles,California,90210,hydroelectric,Hydroelectric = 2 MW,Conventional Hydroelectric,2,2,,,,,2,,,,,,,,"EIA-860, EIA-860M and EIA-923",202305,-118.413377,34.103931
-117.956666999895,36.109721999739,11794,398,Haiwee,11208,Los Angeles Department of Water & Power,Electric Utility,3401 S. Haiwee Rd.,Olancha,Inyo,California,93549,hydroelectric,Hydroelectric = 5 MW,Conventional Hydroelectric,5.6,5,,,,,5,,,,,,,,"EIA-860, EIA-860M and EIA-923",202305,-117.956667,36.109722
-118.265600000351,33.7706000002097,11795,399,Harbor,11208,Los Angeles Department of Water & Power,Electric Utility,161 N. Island Ave.,Wilmington,Los Angeles,California,90744,natural gas,Natural Gas = 422 MW,"Natural Gas Fired Combined Cycle; Natural Gas Fired Combustion Turbine;",548.1,422,,,,,,,422,,,,,,"EIA-860, EIA-860M and EIA-923",202305,-118.2656,33.7706
-118.099129999743,33.7647410003641,11796,400,Haynes,11208,Los Angeles Department of Water & Power,Electric Utility,6801 E. 2nd St.,Long Beach,Los Angeles,California,90803,natural gas,Natural Gas = 1599.2 MW,"Natural Gas Fired Combined Cycle; Natural Gas Fired Combustion Turbine; Natural Gas Steam Turbine",1739.1,1599.2,,,,,,,1599.2,,,,,,"EIA-860, EIA-860M and EIA-923",202305,-118.09913,33.764741
-118.569166999797,37.5099999998379,11797,401,Middle Gorge,11208,Los Angeles Department of Water & Power,Electric Utility,1501 Gorge Rd.,Bishop,Mono,California,93514,hydroelectric,Hydroelectric = 37.5 MW,Conventional Hydroelectric,37.5,37.5,,,,,37.5,,,,,,,,"EIA-860, EIA-860M and EIA-923",202305,-118.569167,37.51
-118.523888999834,37.4141599999178,11798,402,Pleasant Valley Hydro,11208,Los Angeles Department of Water & Power,Electric Utility,Pleasant Valley Dam Rd.,Bishop,Inyo,California,93514,hydroelectric,Hydroelectric = 2.7 MW,Conventional Hydroelectric,3.2,2.7,,,,,2.7,,,,,,,,"EIA-860, EIA-860M and EIA-923",202305,-118.523889,37.41416
-118.492777999637,34.3127780001426,11799,403,San Fernando,11208,Los Angeles Department of Water & Power,Electric Utility,14031 San Fernando Rd.,Sylmar,Los Angeles,California,91342,hydroelectric,Hydroelectric = 6.1 MW,Conventional Hydroelectric,5.6,6.1,,,,,6.1,,,,,,,,"EIA-860, EIA-860M and EIA-923",202305,-118.492778,34.312778
-118.427647999955,33.9181510002843,11800,404,Scattergood,11208,Los Angeles Department of Water & Power,Electric Utility,12700 Vista Del Mar,Playa del Rey,Los Angeles,California,90293,natural gas,Natural Gas = 778.3 MW,"Natural Gas Fired Combined Cycle; Natural Gas Fired Combustion Turbine; Natural Gas Steam Turbine",876,778.3,,,,,,,778.3,,,,,,"EIA-860, EIA-860M and EIA-923",202305,-118.427648,33.918151
-142.999970000419,63.3355199998694,11801,406,Tok,219,Alaska Power and Telephone Co,Electric Utility,Milepost 1314 AK Hwy,Tok,Southeast Fairbanks,Alaska,99780,petroleum,Petroleum = 5.4 MW,Petroleum Liquids,5.3,5.4,,,,,,,,,5.4,,,,"EIA-860, EIA-860M and EIA-923",202305,-142.99997,63.33552
-118.590001000056,37.546036000216,11802,407,Upper Gorge,11208,Los Angeles Department of Water & Power,Electric Utility,1501 Gorge Rd.,Bishop,Mono,California,93514,hydroelectric,Hydroelectric = 36.5 MW,Conventional Hydroelectric,37.5,36.5,,,,,36.5,,,,,,,,"EIA-860, EIA-860M and EIA-923",202305,-118.590001,37.546036
-118.39132700018,34.2449909999504,11803,408,Valley (CA),11208,Los Angeles Department of Water & Power,Electric Utility,11801 Sheldon St.,Sun Valley,Los Angeles,California,91352,natural gas,Natural Gas = 563 MW,"Natural Gas Fired Combined Cycle; Natural Gas Fired Combustion Turbine;",690.5,563,,,,,,,563,,,,,,"EIA-860, EIA-860M and EIA-923",202305,-118.391327,34.244991
-120.268589999775,37.5843449998694,11804,409,Exchequer,12312,Merced Irrigation District,IPP Non-CHP,9188 Village Drive,Snelling,Mariposa,California,95369,hydroelectric,Hydroelectric = 94.5 MW,Conventional Hydroelectric,94.5,94.5,,,,,94.5,,,,,,,,"EIA-860, EIA-860M and EIA-923",202305,-120.26859,37.584345
-120.310090000064,37.5220649998954,11805,410,McSwain,12312,Merced Irrigation District,IPP Non-CHP,7912 Lake McClure Road,Snelling,Mariposa,California,95369,hydroelectric,Hydroelectric = 9 MW,Conventional Hydroelectric,9,9,,,,,9,,,,,,,,"EIA-860, EIA-860M and EIA-923",202305,-120.31009,37.522065
-120.890856000153,39.1779029997766,11806,412,Chicago Park,13402,Nevada Irrigation District,IPP Non-CHP,24199 Lowell Hill Rd,Colfax,Nevada,California,95713,hydroelectric,Hydroelectric = 44 MW,Conventional Hydroelectric,44,44,,,,,44,,,,,,,,"EIA-860, EIA-860M and EIA-923",202305,-120.890856,39.177903
-120.83519999997,39.2184000003446,11807,413,Dutch Flat 2,13402,Nevada Irrigation District,IPP Non-CHP,Diggins Road,Dutch Flat,Nevada,California,95714,hydroelectric,Hydroelectric = 27.3 MW,Conventional Hydroelectric,27.3,27.3,,,,,27.3,,,,,,,,"EIA-860, EIA-860M and EIA-923",202305,-120.8352,39.2184
-120.076983000426,38.2025690002268,11808,414,Beardsley,13935,Oakdale&South San Joaquin Irrigation D.,IPP Non-CHP,None,None,Tuolumne,California,95364,hydroelectric,Hydroelectric = 11 MW,Conventional Hydroelectric,10,11,,,,,11,,,,,,,,"EIA-860, EIA-860M and EIA-923",202305,-120.076983,38.202569
-120.034072000151,38.2466560001442,11809,415,Donnells,13935,Oakdale&South San Joaquin Irrigation D.,IPP Non-CHP,None,None,Tuolumne,California,95364,hydroelectric,Hydroelectric = 72 MW,Conventional Hydroelectric,72,72,,,,,72,,,,,,,,"EIA-860, EIA-860M and EIA-923",202305,-120.034072,38.246656
-120.604999999796,37.8761110003143,11810,416,Tulloch,13935,Oakdale&South San Joaquin Irrigation D.,IPP Non-CHP,Tulloch Dam Road,Jamestown,Tuolumne,California,95370,hydroelectric,Hydroelectric = 25.5 MW,Conventional Hydroelectric,29.9,25.5,,,,,25.5,,,,,,,,"EIA-860, EIA-860M and EIA-923",202305,-120.605,37.876111
-121.278783999933,39.551011999692,11811,417,Forbestown,14191,South Feather Water and Power Agency,Electric Utility,Ponderosa Way,Forbestown,Butte,California,95941,hydroelectric,Hydroelectric = 37.5 MW,Conventional Hydroelectric,41.9,37.5,,,,,37.5,,,,,,,,"EIA-860, EIA-860M and EIA-923",202305,-121.278784,39.551012
-121.491247000181,39.531783999844,11812,418,Kelly Ridge,14191,South Feather Water and Power Agency,Electric Utility,Oroville Dam Blvd,Oroville,Butte,California,95965,hydroelectric,Hydroelectric = 10 MW,Conventional Hydroelectric,10,10,,,,,10,,,,,,,,"EIA-860, EIA-860M and EIA-923",202305,-121.491247,39.531784
-121.204076999922,39.553811000324,11813,419,Woodleaf,14191,South Feather Water and Power Agency,Electric Utility,Forbestown Dam Road,Forbestown,Butte,California,95941,hydroelectric,Hydroelectric = 60 MW,Conventional Hydroelectric,67.2,60,,,,,60,,,,,,,,"EIA-860, EIA-860M and EIA-923",202305,-121.204077,39.553811
-133.148690000077,55.4769100001566,11814,421,Craig (AK),219,Alaska Power and Telephone Co,Electric Utility,401 7th Street,Craig,Prince of Wales Ketchikan,Alaska,99921,petroleum,Petroleum = 4.6 MW,Petroleum Liquids,4.6,4.6,,,,,,,,,4.6,,,,"EIA-860, EIA-860M and EIA-923",202305,-133.14869,55.47691
-118.149399999723,34.1259999998761,11815,422,Glenarm,14534,City of Pasadena - (CA),Electric Utility,43 East State Street,Pasadena,Los Angeles,California,91105,natural gas,Natural Gas = 222.4 MW,"Natural Gas Fired Combined Cycle; Natural Gas Fired Combustion Turbine;",265.6,222.4,,,,,,,222.4,,,,,,"EIA-860, EIA-860M and EIA-923",202305,-118.1494,34.126
-132.821434999714,55.2049370002271,11816,423,Hydaburg,219,Alaska Power and Telephone Co,Electric Utility,105 Hyda Street,Prince of Wales,Prince of Wales Ketchikan,Alaska,99922,petroleum,Petroleum = 1 MW,Petroleum Liquids,1,1,,,,,,,,,1,,,,"EIA-860, EIA-860M and EIA-923",202305,-132.821435,55.204937
-120.406069000002,39.0779709999855,11817,424,French Meadows,15127,Placer County Water Agency,Electric Utility,NW side of Hell Hole Reservoir,Foresthill,Placer,California,95631,hydroelectric,Hydroelectric = 16 MW,Conventional Hydroelectric,15.3,16,,,,,16,,,,,,,,"EIA-860, EIA-860M and EIA-923",202305,-120.406069,39.077971
-120.596383000264,39.0248009999576,11818,425,Middle Fork,15127,Placer County Water Agency,Electric Utility,5000 Mosquito Ridge Rd.,Foresthill,Placer,California,95631,hydroelectric,Hydroelectric = 132 MW,Conventional Hydroelectric,122.4,132,,,,,132,,,,,,,,"EIA-860, EIA-860M and EIA-923",202305,-120.596383,39.024801
-120.746650999882,39.0033720002973,11819,426,Oxbow (CA),15127,Placer County Water Agency,Electric Utility,9200 Blacksmith Rd.,Foresthill,Placer,California,95631,hydroelectric,Hydroelectric = 6 MW,Conventional Hydroelectric,6.1,6,,,,,6,,,,,,,,"EIA-860, EIA-860M and EIA-923",202305,-120.746651,39.003372
-120.72505300044,39.0009990002194,11820,427,Ralston,15127,Placer County Water Agency,Electric Utility,9600 Blacksmith Flat Rd.,Foresthill,Placer,California,95631,hydroelectric,Hydroelectric = 86 MW,Conventional Hydroelectric,79.2,86,,,,,86,,,,,,,,"EIA-860, EIA-860M and EIA-923",202305,-120.725053,39.000999
-120.444492000049,37.4778380000646,11821,428,Parker,12312,Merced Irrigation District,IPP Non-CHP,hwy 59 on Merced/Snelling road,Snelling,Merced,California,95344,hydroelectric,Hydroelectric = 2.7 MW,Conventional Hydroelectric,2.7,2.7,,,,,2.7,,,,,,,,"EIA-860, EIA-860M and EIA-923",202305,-120.444492,37.477838
-120.537089000148,38.82881000034,11822,430,Camino,16534,Sacramento Municipal Util Dist,Electric Utility,Highway 50,Camino,El Dorado,California,95726,hydroelectric,Hydroelectric = 155.9 MW,Conventional Hydroelectric,157.8,155.9,,,,,155.9,,,,,,,,"EIA-860, EIA-860M and EIA-923",202305,-120.537089,38.82881
-120.531759999847,38.8340499997691,11823,431,Jaybird,16534,Sacramento Municipal Util Dist,Electric Utility,Highway 50,Camino,El Dorado,California,95725,hydroelectric,Hydroelectric = 156.2 MW,Conventional Hydroelectric,161.6,156.2,,,,,156.2,,,,,,,,"EIA-860, EIA-860M and EIA-923",202305,-120.53176,38.83405
-120.324502999877,38.9826970002203,11824,432,Loon Lake,16534,Sacramento Municipal Util Dist,Electric Utility,Ice House Rd,Fresh Pond,El Dorado,California,95726,hydroelectric,Hydroelectric = 74.1 MW,Conventional Hydroelectric,74.1,74.1,,,,,74.1,,,,,,,,"EIA-860, EIA-860M and EIA-923",202305,-120.324503,38.982697
-120.378291999964,38.8965109999822,11825,433,Robbs Peak,16534,Sacramento Municipal Util Dist,Electric Utility,Ice House Rd,Fresh Pond,El Dorado,California,95726,hydroelectric,Hydroelectric = 25.5 MW,Conventional Hydroelectric,25.5,25.5,,,,,25.5,,,,,,,,"EIA-860, EIA-860M and EIA-923",202305,-120.378292,38.896511
-120.787366000173,38.7653360001101,11826,435,White Rock/Slab Creek,16534,Sacramento Municipal Util Dist,Electric Utility,Highway 50,Placerville,El Dorado,California,95709,hydroelectric,Hydroelectric = 244.2 MW,Conventional Hydroelectric,269.2,244.2,,,,,244.2,,,,,,,,"EIA-860, EIA-860M and EIA-923",202305,-120.787366,38.765336
-117.334399999692,34.2055999997598,11827,436,Devil Canyon,3255,California Dept. of Water Resources,Electric Utility,6900 Devil Canyon Rd.,San Bernardino,San Bernardino,California,92407,hydroelectric,Hydroelectric = 262 MW,Conventional Hydroelectric,276.2,262,,,,,262,,,,,,,,"EIA-860, EIA-860M and EIA-923",202305,-117.3344,34.2056
-121.492187999814,39.542985000048,11828,437,Edward C Hyatt,3255,California Dept. of Water Resources,Electric Utility,460 Glen Dr.,Oroville,Butte,California,95966,hydroelectric,"Pumped Storage = 337.2 MW,Hydroelectric = 405.9 MW","Hydroelectric Pumped Storage; Conventional Hydroelectric;",644.1,743.1,,,,,405.9,337.2,,,,,,,"EIA-860, EIA-860M and EIA-923",202305,-121.492188,39.542985
-121.63007700012,39.5148930003373,11829,438,Thermalito,3255,California Dept. of Water Resources,Electric Utility,460 Glen Dr.,Oroville,Butte,California,95966,pumped storage,"Pumped Storage = 82.5 MW,Hydroelectric = 32.6 MW","Hydroelectric Pumped Storage; Conventional Hydroelectric;",115.1,115.1,,,,,32.6,82.5,,,,,,,"EIA-860, EIA-860M and EIA-923",202305,-121.630077,39.514893
-120.420152000102,37.6959939997954,11830,439,Don Pedro,19281,Turlock Irrigation District,Electric Utility,21 Bonds Flat Road,La Grange,Tuolumne,California,95329,hydroelectric,Hydroelectric = 203.2 MW,Conventional Hydroelectric,170.8,203.2,,,,,203.2,,,,,,,,"EIA-860, EIA-860M and EIA-923",202305,-120.420152,37.695994
-120.443599999922,37.6697000001762,11831,440,La Grange,19281,Turlock Irrigation District,Electric Utility,1249 La Grange Dam Road,La Grange,Stanislaus,California,95329,hydroelectric,Hydroelectric = 4.3 MW,Conventional Hydroelectric,4.5,4.3,,,,,4.3,,,,,,,,"EIA-860, EIA-860M and EIA-923",202305,-120.4436,37.6697
-121.158443000307,38.7067499997822,11832,441,Folsom,2518,U S Bureau of Reclamation,Electric Utility,N/A,Folsom,Sacramento,California,95630,hydroelectric,Hydroelectric = 215.1 MW,Conventional Hydroelectric,198.6,215.1,,,,,215.1,,,,,,,,"EIA-860, EIA-860M and EIA-923",202305,-121.158443,38.70675
-122.626973000175,40.646934000201,11833,442,Judge F Carr,2518,U S Bureau of Reclamation,Electric Utility,N/A,French Gulch,Shasta,California,96003,hydroelectric,Hydroelectric = 177.4 MW,Conventional Hydroelectric,154.4,177.4,,,,,177.4,,,,,,,,"EIA-860, EIA-860M and EIA-923",202305,-122.626973,40.646934
-122.446441000282,40.611857999665,11834,443,Keswick,2518,U S Bureau of Reclamation,Electric Utility,N/A,Redding,Shasta,California,96003,hydroelectric,Hydroelectric = 117 MW,Conventional Hydroelectric,117,117,,,,,117,,,,,,,,"EIA-860, EIA-860M and EIA-923",202305,-122.446441,40.611858
-121.220197999822,38.6373499996586,11835,444,Nimbus,2518,U S Bureau of Reclamation,Electric Utility,N/A,Folsom,Sacramento,California,95630,hydroelectric,Hydroelectric = 16.6 MW,Conventional Hydroelectric,13.4,16.6,,,,,16.6,,,,,,,,"EIA-860, EIA-860M and EIA-923",202305,-121.220198,38.63735
-122.422273999689,40.7174549999989,11836,445,Shasta,2518,U S Bureau of Reclamation,Electric Utility,n/a,Redding,Shasta,California,96003,hydroelectric,Hydroelectric = 714 MW,Conventional Hydroelectric,714,714,,,,,714,,,,,,,,"EIA-860, EIA-860M and EIA-923",202305,-122.422274,40.717455
-121.047717999571,37.0986710000463,11837,446,ONeill,2518,U S Bureau of Reclamation,Electric Utility,n/a,Los Banos,Merced,California,95376,pumped storage,Pumped Storage = 14.4 MW,Hydroelectric Pumped Storage,25.2,14.4,,,,,,14.4,,,,,,,"EIA-860, EIA-860M and EIA-923",202305,-121.047718,37.098671
-114.140222000259,34.2953340002756,11838,447,Parker Dam,2518,U S Bureau of Reclamation,Electric Utility,n/a,Parker,San Bernardino,California,92267,hydroelectric,Hydroelectric = 120 MW,Conventional Hydroelectric,120,120,,,,,120,,,,,,,,"EIA-860, EIA-860M and EIA-923",202305,-114.140222,34.295334
-121.077200000222,37.0692000002565,11839,448,W R Gianelli,3255,California Dept. of Water Resources,Electric Utility,31770 Gonzaga Rd.,Gustine,Merced,California,95322,pumped storage,Pumped Storage = 401 MW,Hydroelectric Pumped Storage,424,401,,,,,,401,,,,,,,"EIA-860, EIA-860M and EIA-923",202305,-121.0772,37.0692
-122.467508999994,40.6281150002908,11840,450,Spring Creek,2518,U S Bureau of Reclamation,Electric Utility,n/a,Redding,Shasta,California,96003,hydroelectric,Hydroelectric = 180 MW,Conventional Hydroelectric,180,180,,,,,180,,,,,,,,"EIA-860, EIA-860M and EIA-923",202305,-122.467509,40.628115
-122.76255299962,40.7972959997331,11841,451,Trinity,2518,U S Bureau of Reclamation,Electric Utility,n/a,Weaverville,Trinity,California,96003,hydroelectric,Hydroelectric = 140 MW,Conventional Hydroelectric,140,140,,,,,140,,,,,,,,"EIA-860, EIA-860M and EIA-923",202305,-122.762553,40.797296
-121.191665999924,39.3308330000084,11842,454,Colgate,21140,Yuba County Water Agency,Electric Utility,12700 Lake Francis Rd,Dobbins,Yuba,California,95935,hydroelectric,Hydroelectric = 352.4 MW,Conventional Hydroelectric,315,352.4,,,,,352.4,,,,,,,,"EIA-860, EIA-860M and EIA-923",202305,-121.191666,39.330833
-121.270409000251,39.2389960000618,11843,455,Narrows 2,21140,Yuba County Water Agency,Electric Utility,8764 Scott Forbes Road,Browns Valley,Yuba,California,95918,hydroelectric,Hydroelectric = 55 MW,Conventional Hydroelectric,46.7,55,,,,,55,,,,,,,,"EIA-860, EIA-860M and EIA-923",202305,-121.270409,39.238996
-117.016566000023,33.1662460000717,11844,457,Bear Valley,5969,City of Escondido - (CA),Electric Utility,25130 Lake Wohlford Rd.,Escondido,San Diego,California,92027,hydroelectric,Hydroelectric = 1.4 MW,Conventional Hydroelectric,1.4,1.4,,,,,1.4,,,,,,,,"EIA-860, EIA-860M and EIA-923",202305,-117.016566,33.166246
-104.614399999606,38.2666999997048,11845,460,Pueblo,56146,"Black Hills Colorado Electric, LLC",Electric Utility,105 S. Victoria,Pueblo,Pueblo,Colorado,81003,petroleum,Petroleum = 8 MW,Petroleum Liquids,8,8,,,,,,,,,8,,,,"EIA-860, EIA-860M and EIA-923",202305,-104.6144,38.2667
-105.894699999942,37.4593999998542,11846,464,Alamosa,15466,Public Service Co of Colorado,Electric Utility,8073 County Road 8,Alamosa,Alamosa,Colorado,81101,natural gas,Natural Gas = 27 MW,Natural Gas Fired Combustion Turbine,53.2,27,,,,,,,27,,,,,,"EIA-860, EIA-860M and EIA-923",202305,-105.8947,37.4594
-105.332495000134,40.004725000106,11847,466,Boulder Canyon Hydro,1994,Boulder City of,IPP Non-CHP,37788 Boulder Canyon Drive,Boulder,Boulder,Colorado,80306,hydroelectric,Hydroelectric = 5 MW,Conventional Hydroelectric,5,5,,,,,5,,,,,,,,"EIA-860, EIA-860M and EIA-923",202305,-105.332495,40.004725
-105.708800000287,39.6551000002815,11848,467,Cabin Creek,15466,Public Service Co of Colorado,Electric Utility,5167 Guanella Pass Road,Georgetown,Clear Creek,Colorado,80444,pumped storage,Pumped Storage = 351.9 MW,Hydroelectric Pumped Storage,300,351.9,,,,,,351.9,,,,,,,"EIA-860, EIA-860M and EIA-923",202305,-105.7088,39.6551
-104.964547999945,39.8072750000753,11849,469,Cherokee,15466,Public Service Co of Colorado,Electric Utility,6198 Franklin St,Denver,Adams,Colorado,80216,natural gas,Natural Gas = 886 MW,"Natural Gas Fired Combined Cycle; Natural Gas Steam Turbine;",1006.4,886,,,,,,,886,,,,,,"EIA-860, EIA-860M and EIA-923",202305,-104.964548,39.807275
-104.574700000365,38.2081000002011,11850,470,Comanche (CO),15466,Public Service Co of Colorado,Electric Utility,2005 Lime Rd.,Pueblo,Pueblo,Colorado,81006,coal,Coal = 1085 MW,Conventional Steam Coal,1252.8,1085,,,1085,,,,,,,,,,"EIA-860, EIA-860M and EIA-923",202305,-104.5747,38.2081
-108.734700000365,39.1363999998799,11851,471,Fruita,15466,Public Service Co of Colorado,Electric Utility,917 Colorado State Highway 340,Grand Junction,Mesa,Colorado,81521,natural gas,Natural Gas = 14 MW,Natural Gas Fired Combustion Turbine,26.6,14,,,,,,,14,,,,,,"EIA-860, EIA-860M and EIA-923",202305,-108.7347,39.1364
-105.697800000276,39.6918999998738,11852,472,Georgetown Hydro,15466,Public Service Co of Colorado,Electric Utility,6th and Griffith St.,Georgetown,Clear Creek,Colorado,80444,hydroelectric,Hydroelectric = 1.6 MW,Conventional Hydroelectric,1.2,1.6,,,,,1.6,,,,,,,,"EIA-860, EIA-860M and EIA-923",202305,-105.6978,39.6919
-106.182003000271,38.5341900002526,11853,474,Salida,15466,Public Service Co of Colorado,Electric Utility,16880 County Road 220,Salida,Chaffee,Colorado,81201,hydroelectric,Hydroelectric = 0.6 MW,Conventional Hydroelectric,0.6,0.6,,,,,0.6,,,,,,,,"EIA-860, EIA-860M and EIA-923",202305,-106.182003,38.53419
-107.226876000238,39.570130000293,11854,476,Shoshone (CO),15466,Public Service Co of Colorado,Electric Utility,60111 Highway 6 & 40,Glenwood Springs,Garfield,Colorado,81601,hydroelectric,Hydroelectric = 15 MW,Conventional Hydroelectric,14.4,15,,,,,15,,,,,,,,"EIA-860, EIA-860M and EIA-923",202305,-107.226876,39.57013
-105.201999999695,40.0194999999165,11855,477,Valmont,15466,Public Service Co of Colorado,Electric Utility,1800 N. 63rd St.,Boulder,Boulder,Colorado,80302,natural gas,Natural Gas = 43 MW,Natural Gas Fired Combustion Turbine,59.3,43,,,,,,,43,,,,,,"EIA-860, EIA-860M and EIA-923",202305,-105.202,40.0195
-117.497100000123,33.83430000013,11856,479,Temescal,12397,Metropolitan Water District of S CA,Electric Utility,Eagle Canyon Rd and Cajalco,Corona,Riverside,California,91720,hydroelectric,Hydroelectric = 2.8 MW,Conventional Hydroelectric,2.9,2.8,,,,,2.8,,,,,,,,"EIA-860, EIA-860M and EIA-923",202305,-117.4971,33.8343
-117.610600000077,33.8589500003001,11857,480,Corona,12397,Metropolitan Water District of S CA,Electric Utility,Adobe Avenue,Corona,Riverside,California,91720,hydroelectric,Hydroelectric = 2.8 MW,Conventional Hydroelectric,2.9,2.8,,,,,2.8,,,,,,,,"EIA-860, EIA-860M and EIA-923",202305,-117.6106,33.85895
-117.183100000204,33.8361000000223,11858,481,Perris,12397,Metropolitan Water District of S CA,Electric Utility,17801 Lake Perris Ave.,Perris,Riverside,California,92555,hydroelectric,Hydroelectric = 7.9 MW,Conventional Hydroelectric,7.9,7.9,,,,,7.9,,,,,,,,"EIA-860, EIA-860M and EIA-923",202305,-117.1831,33.8361
-118.099169999926,34.0047220000734,11859,482,Rio Hondo,12397,Metropolitan Water District of S CA,Electric Utility,9840 Milla Way,South Gate,Los Angeles,California,90280,hydroelectric,Hydroelectric = 1.9 MW,Conventional Hydroelectric,1.9,1.9,,,,,1.9,,,,,,,,"EIA-860, EIA-860M and EIA-923",202305,-118.09917,34.004722
-117.955169999694,33.9249299999756,11860,483,Coyote Creek,12397,Metropolitan Water District of S CA,Electric Utility,627 S. Monte Vista,La Habra,Orange,California,90631,hydroelectric,Hydroelectric = 3.1 MW,Conventional Hydroelectric,3.1,3.1,,,,,3.1,,,,,,,,"EIA-860, EIA-860M and EIA-923",202305,-117.95517,33.92493
-117.188899999786,33.3944000001661,11861,484,Red Mountain,12397,Metropolitan Water District of S CA,Electric Utility,3500 Mission Road,Fallbrook,San Diego,California,92028,hydroelectric,Hydroelectric = 5.9 MW,Conventional Hydroelectric,5.9,5.9,,,,,5.9,,,,,,,,"EIA-860, EIA-860M and EIA-923",202305,-117.1889,33.3944
-117.829050000403,33.9001000002285,11862,487,Valley View,12397,Metropolitan Water District of S CA,Electric Utility,4226 Valley View Ave.,Yorba Linda,Orange,California,92886,hydroelectric,Hydroelectric = 4.1 MW,Conventional Hydroelectric,4.1,4.1,,,,,4.1,,,,,,,,"EIA-860, EIA-860M and EIA-923",202305,-117.82905,33.9001
-120.470600000358,37.6508000001892,11863,489,Upper Dawson,19281,Turlock Irrigation District,Electric Utility,707 La Grange Dam Road,La Grange,Tuolumne,California,95329,hydroelectric,Hydroelectric = 5.5 MW,Conventional Hydroelectric,4.4,5.5,,,,,5.5,,,,,,,,"EIA-860, EIA-860M and EIA-923",202305,-120.4706,37.6508
-104.816944000116,38.8813890001857,11864,493,George Birdsall,3989,City of Colorado Springs - (CO),Electric Utility,213 Nichols Blvd.,Colorado Springs,El Paso,Colorado,80907,natural gas,Natural Gas = 55 MW,Natural Gas Steam Turbine,61.1,55,,,,,,,55,,,,,,"EIA-860, EIA-860M and EIA-923",202305,-104.816944,38.881389
-104.933055999981,38.855555999802,11865,494,Manitou Springs,3989,City of Colorado Springs - (CO),Electric Utility,540 Ruxton Avenue,Manitou Spring,El Paso,Colorado,80829,hydroelectric,Hydroelectric = 5.5 MW,Conventional Hydroelectric,5.6,5.5,,,,,5.5,,,,,,,,"EIA-860, EIA-860M and EIA-923",202305,-104.933056,38.855556
-104.973802000234,38.8413540002822,11866,495,Ruxton Park,3989,City of Colorado Springs - (CO),Electric Utility,100 Knull Drive,Manitou Spring,El Paso,Colorado,80829,hydroelectric,Hydroelectric = 1 MW,Conventional Hydroelectric,1,1,,,,,1,,,,,,,,"EIA-860, EIA-860M and EIA-923",202305,-104.973802,38.841354
-102.073659000124,38.0327169999103,11867,502,Holly,8751,Town of Holly - (CO),Electric Utility,Tony Garcia Drive PO Box 458,Holly,Prowers,Colorado,81047,petroleum,Petroleum = 2.7 MW,Petroleum Liquids,2.9,2.7,,,,,,,,,2.7,,,,"EIA-860, EIA-860M and EIA-923",202305,-102.073659,38.032717
-102.279500000084,40.9504999998685,11868,504,Julesburg,9928,City of Julesburg - (CO),Electric Utility,222 East First St,Julesburg,Sedgwick,Colorado,80737,petroleum,Petroleum = 2.2 MW,Petroleum Liquids,2.8,2.2,,,,,,,,,2.2,,,,"EIA-860, EIA-860M and EIA-923",202305,-102.2795,40.9505
-108.177545000302,43.4178719999102,11869,505,Boysen,2518,U S Bureau of Reclamation,Electric Utility,n/a,Thermopolis,Fremont,Wyoming,82649,hydroelectric,Hydroelectric = 17.2 MW,Conventional Hydroelectric,15,17.2,,,,,17.2,,,,,,,,"EIA-860, EIA-860M and EIA-923",202305,-108.177545,43.417872
-103.215900000274,38.0646999999881,11870,507,Las Animas,10730,City of Las Animas - (CO),Electric Utility,733 Moore Ave,Las Animas,Bent,Colorado,81054,petroleum,Petroleum = 5.1 MW,Petroleum Liquids,5.6,5.1,,,,,,,,,5.1,,,,"EIA-860, EIA-860M and EIA-923",202305,-103.2159,38.0647
-102.537914999964,38.0333270000815,11871,508,Lamar Plant,10633,City of Lamar - (CO),Electric Utility,100 North Second Street,Lamar,Prowers,Colorado,81052,wind,"Petroleum = 2 MW, Wind = 5.5 MW","Petroleum Liquids; Onshore Wind Turbine;",8,7.5,,,,,,,,,2,,5.5,,"EIA-860, EIA-860M and EIA-923",202305,-102.537915,38.033327
-122.755900000269,38.7902999998667,11872,510,Sonoma California Geothermal,7160,Geysers Power Co LLC,IPP Non-CHP,10350 Socrates Mine Road,Middletown,Lake,California,95461,geothermal,Geothermal = 50MW,Geothermal,78,50,,,,50,,,,,,,,,"EIA-860, EIA-860M and EIA-923",202305,-122.7559,38.7903
-104.487491999944,37.1789790002759,11873,511,Trinidad (CO),19204,City of Trinidad - (CO),Electric Utility,1925 E Main St,Trinidad,Las Animas,Colorado,81082,petroleum,"Natural Gas = 3.8 MW, Petroleum = 5.4 MW","Natural Gas Internal Combustion Engine; Petroleum Liquids;",9.2,9.2,,,,,,,3.8,,5.4,,,,"EIA-860, EIA-860M and EIA-923",202305,-104.487492,37.178979
-107.337483000075,38.4531910002736,11874,512,Blue Mesa,2518,U S Bureau of Reclamation,Electric Utility,n/a,Gunnison,Gunnison,Colorado,81401,hydroelectric,Hydroelectric = 86.4 MW,Conventional Hydroelectric,86.4,86.4,,,,,86.4,,,,,,,,"EIA-860, EIA-860M and EIA-923",202305,-107.337483,38.453191
-105.50966500028,40.3767709998231,11875,513,Estes,2518,U S Bureau of Reclamation,Electric Utility,n/a,Estes Park,Larimer,Colorado,80517,hydroelectric,Hydroelectric = 51.6 MW,Conventional Hydroelectric,45,51.6,,,,,51.6,,,,,,,,"EIA-860, EIA-860M and EIA-923",202305,-105.509665,40.376771
-107.53929899959,38.4517529996832,11876,514,Morrow Point,2518,U S Bureau of Reclamation,Electric Utility,n/a,Montrose,Montrose,Colorado,81401,hydroelectric,Hydroelectric = 173.2 MW,Conventional Hydroelectric,173.2,173.2,,,,,173.2,,,,,,,,"EIA-860, EIA-860M and EIA-923",202305,-107.539299,38.451753
-105.223803999899,40.4210310002407,11877,515,Big Thompson,2518,U S Bureau of Reclamation,Electric Utility,n/a,Loveland,Larimer,Colorado,80538,hydroelectric,Hydroelectric = 5.2 MW,Conventional Hydroelectric,4.5,5.2,,,,,5.2,,,,,,,,"EIA-860, EIA-860M and EIA-923",202305,-105.223804,40.421031
-106.332725000349,39.8788049999461,11878,516,Green Mountain,2518,U S Bureau of Reclamation,Electric Utility,n/a,Kremmling,Summit,Colorado,80459,hydroelectric,Hydroelectric = 26 MW,Conventional Hydroelectric,26,26,,,,,26,,,,,,,,"EIA-860, EIA-860M and EIA-923",202305,-106.332725,39.878805
-105.534308000175,40.3440799998804,11879,517,Marys Lake,2518,U S Bureau of Reclamation,Electric Utility,n/a,Estes Park,Larimer,Colorado,80517,hydroelectric,Hydroelectric = 9.3 MW,Conventional Hydroelectric,8.1,9.3,,,,,9.3,,,,,,,,"EIA-860, EIA-860M and EIA-923",202305,-105.534308,40.34408
-105.236031999599,40.364996000063,11880,518,Flatiron,2518,U S Bureau of Reclamation,Electric Utility,n/a,Loveland,Larimer,Colorado,80539,hydroelectric,"Pumped Storage = 8.5 MW,Hydroelectric = 86 MW","Hydroelectric Pumped Storage; Conventional Hydroelectric;",94.5,94.5,,,,,86,8.5,,,,,,,"EIA-860, EIA-860M and EIA-923",202305,-105.236032,40.364996
-105.325073999606,40.3650560002275,11881,519,Pole Hill,2518,U S Bureau of Reclamation,Electric Utility,n/a,Loveland,Larimer,Colorado,80537,hydroelectric,Hydroelectric = 38.2 MW,Conventional Hydroelectric,38.2,38.2,,,,,38.2,,,,,,,,"EIA-860, EIA-860M and EIA-923",202305,-105.325074,40.365056
-108.044088000147,39.1936599998564,11882,520,Lower Molina,2518,U S Bureau of Reclamation,Electric Utility,n/a,Molina,Mesa,Colorado,81401,hydroelectric,Hydroelectric = 5.6 MW,Conventional Hydroelectric,5.6,5.6,,,,,5.6,,,,,,,,"EIA-860, EIA-860M and EIA-923",202305,-108.044088,39.19366
-108.00477700017,39.1438079999703,11883,521,Upper Molina,2518,U S Bureau of Reclamation,Electric Utility,n/a,Molina,Mesa,Colorado,81401,hydroelectric,Hydroelectric = 9.9 MW,Conventional Hydroelectric,9.9,9.9,,,,,9.9,,,,,,,,"EIA-860, EIA-860M and EIA-923",202305,-108.004777,39.143808
-107.185000000206,40.4855999996751,11884,525,Hayden,15466,Public Service Co of Colorado,Electric Utility,13125 U.S. Highway 40,Hayden,Routt,Colorado,81639,coal,Coal = 441 MW,Conventional Steam Coal,465.4,441,,,441,,,,,,,,,,"EIA-860, EIA-860M and EIA-923",202305,-107.185,40.4856
-121.316965999956,39.0488020000505,11885,531,Camp Far West,16534,Sacramento Municipal Util Dist,Electric Utility,2464 Pacific Ave,Lincoln,Placer,California,95692,hydroelectric,Hydroelectric = 7.2 MW,Conventional Hydroelectric,7.2,7.2,,,,,7.2,,,,,,,,"EIA-860, EIA-860M and EIA-923",202305,-121.316966,39.048802
-86.4764490000854,31.400255000102,11886,533,McWilliams,189,PowerSouth Energy Cooperative,Electric Utility,28570 US 29 North,Gantt,Covington,Alabama,36038,natural gas,Natural Gas = 664 MW,Natural Gas Fired Combined Cycle,654,664,,,,,,,664,,,,,,"EIA-860, EIA-860M and EIA-923",202305,-86.476449,31.400255
-120.381883000041,38.8502830000876,11887,534,Jones Fork,16534,Sacramento Municipal Util Dist,Electric Utility,Ice House Rd,Fresh Pond,El Dorado,California,95725,hydroelectric,Hydroelectric = 10 MW,Conventional Hydroelectric,10,10,,,,,10,,,,,,,,"EIA-860, EIA-860M and EIA-923",202305,-120.381883,38.850283
-121.393335999849,38.652731000118,11888,535,McClellan (CA),16534,Sacramento Municipal Util Dist,Electric Utility,Watt Ave,Sacramento,Sacramento,California,95652,natural gas,Natural Gas = 77 MW,Natural Gas Fired Combustion Turbine,77,77,,,,,,,77,,,,,,"EIA-860, EIA-860M and EIA-923",202305,-121.393336,38.652731
-121.024499999905,38.226799999806,11889,537,Camanche,5571,East Bay Municipal Util Dist,Electric Utility,McIntire Rd,Clements & Wallace,San Joaquin,California,95227,hydroelectric,Hydroelectric = 10.5 MW,Conventional Hydroelectric,10.8,10.5,,,,,10.5,,,,,,,,"EIA-860, EIA-860M and EIA-923",202305,-121.0245,38.2268
-73.4349000004046,41.5825999999432,11890,539,Rocky River (CT),54895,FirstLight Power Resources Services LLC,IPP Non-CHP,200 Kent Road,New Milford,Litchfield,Connecticut,6776,pumped storage,Pumped Storage = 29.4 MW,Hydroelectric Pumped Storage,31,29.4,,,,,,29.4,,,,,,,"EIA-860, EIA-860M and EIA-923",202305,-73.4349,41.5826
